code,name,state,lon,lat
520005,Abadia de Goiás,GO,-49.4412,-16.7573
310010,Abadia dos Dourados,MG,-47.4064,-18.4911
520010,Abadiânia,GO,-48.7068,-16.1947
150010,Abaetetuba,PA,-48.8788,-1.7218
310020,Abaeté,MG,-45.4481,-19.1567
230010,Abaiara,CE,-39.0344,-7.3508
290020,Abaré,BA,-39.114,-8.724
410010,Abatiá,PR,-50.3103,-23.3053
290010,Abaíra,BA,-41.664,-13.2503
420005,Abdon Batista,SC,-51.023,-27.6124
150013,Abel Figueiredo,PA,-48.3958,-4.953
420010,Abelardo Luz,SC,-52.3286,-26.5693
310030,Abre Campo,MG,-42.4391,-20.2726
260005,Abreu e Lima,PE,-34.8984,-7.9007
170025,Abreulândia,TO,-49.1558,-9.6222
310040,Acaiaca,MG,-43.1444,-20.3622
290030,Acajutiba,BA,-38.0189,-11.6608
230015,Acarape,CE,-38.7072,-4.2238
230020,Acaraú,CE,-40.1183,-2.8877
240010,Acari,RN,-36.6392,-6.437
150020,Acará,PA,-48.1987,-1.9614
220005,Acauã,PI,-41.0831,-8.2195
430003,Aceguá,RS,-54.1616,-31.8695
230030,Acopiara,CE,-39.4543,-6.0936
510010,Acorizal,MT,-56.3632,-15.194
120001,Acrelândia,AC,-67.0527,-10.0759
520013,Acreúna,GO,-50.3749,-17.396
350010,Adamantina,SP,-51.0763,-21.6867
520015,Adelândia,GO,-50.1666,-16.4155
350020,Adolfo,SP,-49.6442,-21.2357
410020,Adrianópolis,PR,-48.9913,-24.6558
290035,Adustina,BA,-38.1145,-10.5359
260010,Afogados da Ingazeira,PE,-37.6356,-7.7504
240030,Afonso Bezerra,RN,-36.5064,-5.5003
320010,Afonso Cláudio,ES,-41.1261,-20.0778
210010,Afonso Cunha,MA,-43.3275,-4.1363
260020,Afrânio,PE,-41.0067,-8.5166
150030,Afuá,PA,-50.7668,-0.3768
260030,Agrestina,PE,-35.9447,-8.4597
220010,Agricolândia,PI,-42.6664,-5.7968
420020,Agrolândia,SC,-49.8296,-27.4124
420030,Agronômica,SC,-49.7105,-27.2661
310080,Aguanil,MG,-45.3927,-20.9425
350030,Aguaí,SP,-46.9763,-22.0583
430010,Agudo,RS,-53.2494,-29.6423
350070,Agudos,SP,-48.9878,-22.4712
410030,Agudos do Sul,PR,-49.3328,-25.9891
250020,Aguiar,PB,-38.1727,-7.0928
170030,Aguiarnópolis,TO,-47.4721,-6.56
310110,Aimorés,MG,-41.0616,-19.4918
290060,Aiquara,BA,-39.8888,-14.1269
230040,Aiuaba,CE,-40.127,-6.5738
310120,Aiuruoca,MG,-44.6028,-21.9756
430020,Ajuricaba,RS,-53.7757,-28.2342
310130,Alagoa,MG,-44.64,-22.1697
250030,Alagoa Grande,PB,-35.6285,-7.0415
250040,Alagoa Nova,PB,-35.7601,-7.0589
250050,Alagoinha,PB,-36.7749,-8.4663
260060,Alagoinha,PE,-36.7749,-8.4663
220025,Alagoinha do Piauí,PI,-40.937,-7.0102
290070,Alagoinhas,BA,-38.4208,-12.1335
350075,Alambari,SP,-47.898,-23.5503
310140,Albertina,MG,-46.6156,-22.2006
250053,Alcantil,PB,-36.0511,-7.7367
500025,Alcinópolis,MS,-53.7094,-18.3264
290080,Alcobaça,BA,-39.1965,-17.5216
210020,Alcântara,MA,-44.4062,-2.3957
230050,Alcântaras,CE,-40.5479,-3.5854
210030,Aldeias Altas,MA,-43.4703,-4.6296
430030,Alecrim,RS,-54.7648,-27.6579
320020,Alegre,ES,-41.5307,-20.759
430040,Alegrete,RS,-55.7949,-29.7902
220027,Alegrete do Piauí,PI,-40.8566,-7.242
430045,Alegria,RS,-54.0557,-27.8345
150040,Alenquer,PA,-54.7384,-1.9462
240050,Alexandria,RN,-38.0118,-6.4136
520030,Alexânia,GO,-48.5078,-16.0834
310160,Alfenas,MG,-45.9446,-21.4439
320030,Alfredo Chaves,ES,-40.7484,-20.6357
350080,Alfredo Marcondes,SP,-51.414,-21.9527
310163,Alfredo Vasconcelos,MG,-43.7764,-21.1458
420070,Alfredo Wagner,SC,-49.3327,-27.6962
250057,Algodão de Jandaíra,PB,-36.0129,-6.8929
250060,Alhandra,PB,-34.9106,-7.4304
260070,Aliança,PE,-35.2227,-7.604
170035,Aliança do Tocantins,TO,-48.9409,-11.3056
290090,Almadina,BA,-39.6382,-14.7047
170040,Almas,TO,-47.1703,-11.5681
150050,Almeirim,PA,-52.5788,-1.529
310170,Almenara,MG,-40.6905,-16.1741
240060,Almino Afonso,RN,-37.7649,-6.1544
410040,Almirante Tamandaré,PR,-49.2996,-25.3135
430047,Almirante Tamandaré do Sul,RS,-52.9134,-28.1139
520050,Aloândia,GO,-49.4809,-17.7278
310180,Alpercata,MG,-41.9828,-18.9804
430050,Alpestre,RS,-53.035,-27.2512
310190,Alpinópolis,MG,-46.3878,-20.8636
510025,Alta Floresta,MT,-56.084,-9.8715
110001,Alta Floresta d`Oeste,RO,-56.084,-9.8715
350090,Altair,SP,-49.0571,-20.5242
150060,Altamira,PA,-52.21,-3.2041
210040,Altamira do Maranhão,MA,-45.4706,-4.166
410045,Altamira do Paraná,PR,-52.7129,-24.7991
230060,Altaneira,CE,-39.7375,-6.9966
310200,Alterosa,MG,-46.1431,-21.2492
260080,Altinho,PE,-36.0644,-8.4848
350100,Altinópolis,SP,-47.3712,-21.0214
430055,Alto Alegre,RS,-50.1662,-21.5821
140005,Alto Alegre,RR,-50.1662,-21.5821
350110,Alto Alegre,SP,-50.1662,-21.5821
210043,Alto Alegre do Maranhão,MA,-44.4454,-4.2047
210047,Alto Alegre do Pindaré,MA,-45.8484,-3.6684
110037,Alto Alegre dos Parecis,RO,-61.835,-12.132
510030,Alto Araguaia,MT,-53.2169,-17.3157
420075,Alto Bela Vista,SC,-56.5317,-22.1073
510035,Alto Boa Vista,MT,-60.6724,2.8208
310205,Alto Caparaó,MG,-41.8684,-20.4406
430057,Alto Feliz,RS,-51.3124,-29.3786
510040,Alto Garças,MT,-53.5272,-16.9462
520055,Alto Horizonte,GO,-49.3367,-14.1955
315350,Alto Jequitibá,MG,-41.9661,-20.4236
220030,Alto Longá,PI,-42.2072,-5.2549
510050,Alto Paraguai,MT,-56.4776,-14.5137
410060,Alto Paraná,PR,-52.3189,-23.1312
412862,Alto Paraíso,PR,-63.3188,-9.724
110040,Alto Paraíso,RO,-63.3188,-9.724
520060,Alto Paraíso de Goiás,GO,-47.51,-14.1305
210050,Alto Parnaíba,MA,-45.9309,-9.1122
410070,Alto Piquiri,PR,-53.4417,-24.0239
310210,Alto Rio Doce,MG,-43.4111,-21.0258
320035,Alto Rio Novo,ES,-43.1251,-21.4753
230070,Alto Santo,CE,-38.2743,-5.5089
510060,Alto Taquari,MT,-53.2792,-17.824
240070,Alto do Rodrigues,RN,-36.7617,-5.2909
220040,Altos,PI,-42.4558,-5.0412
410050,Altônia,PR,-53.894,-23.8722
350115,Alumínio,SP,-47.2575,-23.5204
310220,Alvarenga,MG,-41.7283,-19.4175
130002,Alvarães,AM,-64.8143,-3.2148
350150,Alvinlândia,SP,-49.7644,-22.4432
310230,Alvinópolis,MG,-43.0602,-20.1105
430060,Alvorada,RS,-51.0774,-29.9985
170070,Alvorada,TO,-51.0774,-29.9985
110034,Alvorada d`Oeste,RO,-51.0774,-29.9985
310240,Alvorada de Minas,MG,-43.3641,-18.7319
220045,Alvorada do Gurguéia,PI,-43.777,-8.4242
520080,Alvorada do Norte,GO,-51.0774,-29.9985
410080,Alvorada do Sul,PR,-51.2308,-22.7807
310150,Além Paraíba,MG,-42.681,-21.8761
140002,Amajari,RR,-61.4195,3.6549
500060,Amambai,MS,-55.2285,-23.1083
410090,Amaporã,PR,-52.7866,-23.0943
160010,Amapá,AP,-50.793,2.053
210055,Amapá do Maranhão,MA,-45.9299,-1.6947
260090,Amaraji,PE,-35.4501,-8.3769
430063,Amaral Ferrador,RS,-52.251,-30.8756
520082,Amaralina,GO,-49.2962,-13.9236
220050,Amarante,PI,-42.8476,-6.2459
210060,Amarante do Maranhão,MA,-46.7473,-5.5691
290100,Amargosa,BA,-39.6041,-13.0302
130006,Amaturá,AM,-68.2005,-3.3745
350160,Americana,SP,-47.3314,-22.7392
520085,Americano do Brasil,GO,-49.9806,-16.2516
430064,Ametista do Sul,RS,-53.183,-27.3617
230075,Amontada,CE,-39.8286,-3.3646
520090,Amorinópolis,GO,-51.095,-16.6211
250073,Amparo,PB,-46.7644,-22.7011
350190,Amparo,SP,-46.7644,-22.7011
280010,Amparo de São Francisco,SE,-36.9269,-10.13
310250,Amparo do Serra,MG,-42.7988,-20.5238
410100,Ampére,PR,-53.4721,-25.9156
290110,Amélia Rodrigues,BA,-38.7517,-12.4015
290115,América Dourada,BA,-41.4367,-11.4542
350170,Américo Brasiliense,SP,-48.1083,-21.7329
350180,Américo de Campos,SP,-49.7359,-20.2985
270020,Anadia,AL,-36.3053,-9.683
290120,Anagé,BA,-41.1376,-14.6135
410105,Anahy,PR,-53.1338,-24.6451
210070,Anajatuba,MA,-44.6126,-3.2627
150070,Anajás,PA,-49.939,-0.9879
350200,Analândia,SP,-47.6619,-22.1289
130008,Anamã,AM,-61.405,-3.5797
150080,Ananindeua,PA,-48.4017,-1.374
170100,Ananás,TO,-48.0802,-6.3663
150085,Anapu,PA,-51.2003,-3.4698
210080,Anapurus,MA,-43.1046,-3.6751
500070,Anastácio,MS,-55.8104,-20.4823
500080,Anaurilândia,MS,-52.7191,-22.1852
320040,Anchieta,ES,-40.6407,-20.7971
420080,Anchieta,SC,-40.6407,-20.7971
290130,Andaraí,BA,-41.3297,-12.8049
410110,Andirá,PR,-50.231,-23.0495
290135,Andorinha,BA,-39.8278,-10.3452
310260,Andradas,MG,-46.5689,-22.068
350210,Andradina,SP,-51.3786,-20.8948
310280,Andrelândia,MG,-44.3089,-21.7397
430066,André da Rocha,RS,-51.5797,-28.6283
350220,Angatuba,SP,-48.4111,-23.4939
260100,Angelim,PE,-36.2902,-8.8843
420090,Angelina,SC,-48.9839,-27.5805
310285,Angelândia,MG,-42.2728,-17.7253
290140,Angical,BA,-44.7,-12.0056
220060,Angical do Piauí,PI,-42.74,-6.0879
170105,Angico,TO,-47.8657,-6.3894
240080,Angicos,RN,-36.6009,-5.6666
330010,Angra dos Reis,RJ,-44.3163,-23.0064
290150,Anguera,BA,-39.2453,-12.151
500085,Angélica,MS,-53.7708,-22.1527
520120,Anhanguera,GO,-48.2204,-18.3339
350230,Anhembi,SP,-48.1337,-22.7929
350240,Anhumas,SP,-51.3873,-22.2956
520130,Anicuns,GO,-49.9572,-16.4606
420100,Anita Garibaldi,SC,-51.1294,-27.6855
420110,Anitápolis,SC,-49.1287,-27.9041
130010,Anori,AM,-61.6605,-3.7435
430070,Anta Gorda,RS,-52.0102,-28.9698
290160,Antas,BA,-38.3309,-10.4115
410120,Antonina,PR,-48.7125,-25.4299
230080,Antonina do Norte,CE,-39.9879,-6.7754
220080,Antônio Almeida,PI,-44.1954,-7.2175
290170,Antônio Cardoso,BA,-39.119,-12.4346
310290,Antônio Carlos,MG,-48.7681,-27.5175
420120,Antônio Carlos,SC,-48.7681,-27.5175
310300,Antônio Dias,MG,-42.8728,-19.6525
290180,Antônio Gonçalves,BA,-40.2749,-10.5715
500090,Antônio João,MS,-55.9508,-22.1893
240090,Antônio Martins,RN,-37.889,-6.2156
410130,Antônio Olinto,PR,-50.1975,-25.9849
430080,Antônio Prado,RS,-51.2804,-28.8545
310310,Antônio Prado de Minas,MG,-42.1101,-21.0172
520110,Anápolis,GO,-48.9526,-16.3333
220070,Anísio de Abreu,PI,-43.0494,-9.1856
250077,Aparecida,PB,-45.2341,-22.8516
350250,Aparecida,SP,-45.2341,-22.8516
350260,Aparecida d`Oeste,SP,-45.2341,-22.8516
520140,Aparecida de Goiânia,GO,-49.2453,-16.8227
520145,Aparecida do Rio Doce,GO,-51.1491,-18.298
170110,Aparecida do Rio Negro,TO,-47.9774,-9.9513
500100,Aparecida do Taboado,MS,-51.1014,-20.084
330015,Aperibé,RJ,-42.1028,-21.6212
320050,Apiacá,ES,-41.5693,-21.1523
510080,Apiacás,MT,-57.3954,-9.5686
350270,Apiaí,SP,-48.8462,-24.5077
210083,Apicum-Açu,MA,-45.0854,-1.4804
420125,Apiúna,SC,-49.3885,-27.0375
240100,Apodi,RN,-37.7969,-5.6631
290190,Aporá,BA,-38.0795,-11.66
520150,Aporé,GO,-51.928,-18.9642
290195,Apuarema,BA,-39.7457,-13.8518
410140,Apucarana,PR,-51.4611,-23.5525
230090,Apuiarés,CE,-39.4313,-3.946
130014,Apuí,AM,-59.883,-7.194
280020,Aquidabã,SE,-37.0189,-10.2838
500110,Aquidauana,MS,-55.7821,-20.474
230100,Aquiraz,CE,-38.3891,-3.9027
420127,Arabutã,SC,-52.1438,-27.1587
280030,Aracaju,SE,-37.0775,-10.9162
230110,Aracati,CE,-37.7679,-4.5583
290200,Aracatu,BA,-41.4604,-14.4274
290210,Araci,BA,-38.9573,-11.3356
310330,Aracitaba,MG,-43.3786,-21.3425
230120,Aracoiaba,CE,-35.0899,-7.7857
320060,Aracruz,ES,-40.2735,-19.8245
520170,Aragarças,GO,-52.2515,-15.8957
520180,Aragoiânia,GO,-49.4499,-16.9146
170130,Aragominas,TO,-48.5255,-7.1654
170190,Araguacema,TO,-49.5561,-8.8067
510100,Araguaiana,MT,-51.8341,-15.7291
510120,Araguainha,MT,-53.0318,-16.857
210087,Araguanã,MA,-45.665,-2.952
170215,Araguanã,TO,-45.665,-2.952
520215,Araguapaz,GO,-50.6315,-15.0909
310350,Araguari,MG,-48.1934,-18.6511
170220,Araguatins,TO,-48.1159,-5.6523
170200,Araguaçu,TO,-49.8231,-12.9289
170210,Araguaína,TO,-48.2019,-7.1932
210090,Araioses,MA,-41.905,-2.8909
500124,Aral Moreira,MS,-55.6268,-22.9511
290220,Aramari,BA,-38.4985,-12.0908
430085,Arambaré,RS,-51.4995,-30.9132
210095,Arame,MA,-46.0102,-4.8859
350300,Aramina,SP,-47.7899,-20.0881
350310,Arandu,SP,-49.0546,-23.1345
310360,Arantina,MG,-44.2558,-21.9117
350315,Arapeí,SP,-44.4478,-22.6739
270030,Arapiraca,AL,-36.6615,-9.7549
170230,Arapoema,TO,-49.0641,-7.6575
310370,Araponga,MG,-42.5206,-20.6667
410150,Arapongas,PR,-51.4259,-23.4153
310375,Araporã,MG,-49.1883,-18.4318
410160,Arapoti,PR,-49.8228,-24.1459
510125,Araputanga,MT,-58.3467,-15.4708
310380,Arapuá,MG,-46.1556,-19.0344
410165,Arapuã,PR,-46.1556,-19.0344
420130,Araquari,SC,-48.7125,-26.3726
250090,Arara,PB,-35.7606,-6.8272
420140,Araranguá,SC,-49.4858,-28.9349
350320,Araraquara,SP,-48.1773,-21.7887
350330,Araras,SP,-47.3839,-22.3569
230125,Ararendá,CE,-40.8304,-4.7504
210100,Arari,MA,-44.7762,-3.455
430087,Araricá,RS,-50.9291,-29.6168
230130,Araripe,CE,-40.1359,-7.2132
260110,Araripina,PE,-40.5004,-7.576
330020,Araruama,RJ,-42.3429,-22.8733
410170,Araruna,PR,-52.4976,-23.932
250100,Araruna,PB,-52.4976,-23.932
290225,Arataca,BA,-39.4123,-15.2617
430090,Aratiba,RS,-52.3022,-27.3951
230140,Aratuba,CE,-39.0466,-4.4199
290230,Aratuípe,BA,-39.0011,-13.0771
410180,Araucária,PR,-49.4051,-25.5861
280040,Arauá,SE,-37.6181,-11.2644
310400,Araxá,MG,-46.9403,-19.5928
250080,Araçagi,PB,-35.3836,-6.852
350275,Araçariguama,SP,-47.0614,-23.4386
290205,Araças,BA,-38.2011,-12.2099
350280,Araçatuba,SP,-50.439,-21.208
310320,Araçaí,MG,-44.2475,-19.2008
260105,Araçoiaba,PE,-35.0899,-7.7857
350290,Araçoiaba da Serra,SP,-47.6168,-23.5045
520160,Araçu,GO,-49.6815,-16.3562
310340,Araçuaí,MG,-42.0662,-16.8484
310390,Araújos,MG,-45.1656,-19.9481
310410,Arceburgo,MG,-46.9397,-21.3644
350335,Arco-Íris,SP,-50.4667,-21.7738
310420,Arcos,MG,-45.5394,-20.2822
260120,Arcoverde,PE,-37.0577,-8.4152
310430,Areado,MG,-46.1456,-21.3586
330022,Areal,RJ,-43.1056,-22.2315
350340,Arealva,SP,-48.9112,-22.0302
250110,Areia,PB,-35.6995,-6.968
240110,Areia Branca,RN,-37.1263,-4.9507
280050,Areia Branca,SE,-37.1263,-4.9507
250115,Areia de Baraúnas,PB,-36.9446,-7.1234
250120,Areial,PB,-35.9245,-7.0501
350350,Areias,SP,-44.6992,-22.5786
350360,Areiópolis,SP,-48.6674,-22.6758
510130,Arenápolis,MT,-56.8433,-14.461
520235,Arenópolis,GO,-51.5563,-16.3837
310440,Argirita,MG,-42.8372,-21.6128
310445,Aricanduva,MG,-42.5569,-17.8678
310450,Arinos,MG,-46.1061,-15.9172
510140,Aripuanã,MT,-59.444,-10.1758
110002,Ariquemes,RO,-63.0331,-9.9077
350370,Ariranha,SP,-48.7904,-21.1872
410185,Ariranha do Ivaí,PR,-51.5877,-24.3835
420150,Armazém,SC,-49.019,-28.2625
330023,Armação dos Búzios,RJ,-41.8875,-22.7598
230150,Arneiroz,CE,-40.1604,-6.3235
220090,Aroazes,PI,-41.7886,-6.1109
250130,Aroeiras,PB,-35.708,-7.5463
220095,Aroeiras do Itaim,PI,-41.5325,-7.245
220100,Arraial,PI,-42.5335,-6.6542
330025,Arraial do Cabo,RJ,-42.0244,-22.9663
170240,Arraias,TO,-46.9437,-12.9288
430130,Arroio Grande,RS,-53.0862,-32.2327
420160,Arroio Trinta,SC,-51.3349,-26.9302
430100,Arroio do Meio,RS,-51.9445,-29.402
430107,Arroio do Padre,RS,-52.4229,-31.4429
430105,Arroio do Sal,RS,-49.8913,-29.5463
430120,Arroio do Tigre,RS,-53.087,-29.3342
430110,Arroio dos Ratos,RS,-51.727,-30.0894
350380,Artur Nogueira,SP,-47.1727,-22.5727
520250,Aruanã,GO,-51.0716,-14.9162
350390,Arujá,SP,-46.32,-23.3965
420165,Arvoredo,SC,-52.4572,-27.0753
430140,Arvorezinha,RS,-52.1781,-28.8737
240120,Arês,RN,-35.2022,-6.1966
420170,Ascurra,SC,-49.3768,-26.957
350395,Aspásia,SP,-50.728,-20.16
230160,Assaré,CE,-39.8696,-6.8712
410190,Assaí,PR,-50.8455,-23.3736
350400,Assis,SP,-50.4206,-22.6621
120005,Assis Brasil,AC,-69.5672,-10.9409
410200,Assis Chateaubriand,PR,-53.512,-24.4055
250135,Assunção,PB,-36.7274,-7.0734
220105,Assunção do Piauí,PI,-41.0389,-5.865
310460,Astolfo Dutra,MG,-42.8624,-21.3133
410210,Astorga,PR,-51.6647,-23.235
270040,Atalaia,AL,-36.0235,-9.5023
410220,Atalaia,PR,-36.0235,-9.5023
130020,Atalaia do Norte,AM,-36.0235,-9.5023
420180,Atalanta,SC,-49.7789,-27.4219
310470,Ataléia,MG,-41.1069,-18.0372
350410,Atibaia,SP,-46.5503,-23.1169
320070,Atilio Vivacqua,ES,-41.191,-20.9547
170255,Augustinópolis,TO,-47.8898,-5.4662
150090,Augusto Corrêa,PA,-46.6361,-1.0232
430150,Augusto Pestana,RS,-53.9906,-28.5148
240130,Augusto Severo,RN,-37.3012,-5.9052
310480,Augusto de Lima,MG,-44.2652,-18.1093
290240,Aurelino Leal,BA,-39.3196,-14.3189
350420,Auriflama,SP,-50.5555,-20.684
520260,Aurilândia,GO,-50.4641,-16.6773
230170,Aurora,CE,-49.6369,-27.3166
420190,Aurora,SC,-49.6369,-27.3166
150095,Aurora do Pará,PA,-47.5584,-2.1323
170270,Aurora do Tocantins,TO,-46.4076,-12.7104
130030,Autazes,AM,-59.1302,-3.5833
350440,Avanhandava,SP,-49.9465,-21.4603
350450,Avaré,SP,-48.9259,-23.1045
350430,Avaí,SP,-49.3316,-22.1565
150100,Aveiro,PA,-55.3311,-3.6049
220110,Avelino Lopes,PI,-43.949,-10.1347
520280,Avelinópolis,GO,-49.7579,-16.4672
210110,Axixá,MA,-44.0577,-2.8378
170290,Axixá do Tocantins,TO,-47.7701,-5.6127
210005,Açailândia,MA,-47.4958,-4.951
240020,Açu,RN,-36.925,-5.5849
310050,Açucena,MG,-42.5467,-19.0731
170300,Babaçulândia,TO,-47.7616,-7.2034
210120,Bacabal,MA,-44.7812,-4.2318
210125,Bacabeira,MA,-44.3151,-2.9753
210130,Bacuri,MA,-45.1328,-1.6965
210135,Bacurituba,MA,-44.7329,-2.71
350460,Bady Bassitt,SP,-49.4385,-20.9197
310490,Baependi,MG,-44.89,-21.9592
150110,Bagre,PA,-50.1987,-1.9006
430160,Bagé,RS,-54.1071,-31.3287
290250,Baianópolis,BA,-44.5384,-12.3068
290260,Baixa Grande,BA,-40.1658,-11.9631
220115,Baixa Grande do Ribeiro,PI,-45.211,-7.863
230180,Baixio,CE,-38.717,-6.7304
320080,Baixo Guandu,ES,-41.0182,-19.5138
150120,Baião,PA,-49.6703,-2.7903
350470,Balbinos,SP,-49.3584,-21.9006
310500,Baldim,MG,-43.9558,-19.2914
520310,Baliza,GO,-52.5428,-16.1978
420195,Balneário Arroio do Silva,SC,-49.419,-28.9815
420205,Balneário Barra do Sul,SC,-48.6515,-26.4189
420200,Balneário Camboriú,SC,-48.634,-26.9924
420207,Balneário Gaivota,SC,-49.5809,-29.1553
430163,Balneário Pinhal,RS,-50.2346,-30.2483
421280,Balneário Piçarras,SC,-48.6717,-26.7639
422000,Balneário Rincão,SC,-49.2455,-28.8303
410230,Balsa Nova,PR,-49.6313,-25.5842
210140,Balsas,MA,-46.0372,-7.5321
310510,Bambuí,MG,-45.9777,-20.0132
230185,Banabuiú,CE,-38.9198,-5.3046
350490,Bananal,SP,-44.3221,-22.6828
250150,Bananeiras,PB,-35.6338,-6.7538
310520,Bandeira,MG,-40.5592,-15.8844
310530,Bandeira do Sul,MG,-46.3856,-21.7281
420208,Bandeirante,SC,-53.6398,-26.7677
500150,Bandeirantes,MS,-50.3704,-23.1078
410240,Bandeirantes,PR,-50.3704,-23.1078
170305,Bandeirantes do Tocantins,TO,-48.5798,-7.7644
150125,Bannach,PA,-50.3959,-7.3478
290265,Banzaê,BA,-38.6122,-10.5828
250153,Baraúna,PB,-37.6175,-5.0775
240145,Baraúna,RN,-37.6175,-5.0775
310560,Barbacena,MG,-43.7735,-21.2255
230190,Barbalha,CE,-39.2972,-7.3069
350510,Barbosa,SP,-49.9518,-21.2657
410250,Barbosa Ferraz,PR,-52.0081,-24.0287
150130,Barcarena,PA,-48.6191,-1.5108
240150,Barcelona,RN,-35.9265,-5.951
130040,Barcelos,AM,-62.9256,-0.9729
350520,Bariri,SP,-48.7395,-22.0746
290270,Barra,BA,-43.142,-11.0893
420209,Barra Bonita,SC,-48.5583,-22.4909
350530,Barra Bonita,SP,-48.5583,-22.4909
430195,Barra Funda,RS,-53.0401,-27.923
310570,Barra Longa,MG,-43.0422,-20.2832
330040,Barra Mansa,RJ,-44.1665,-22.535
420210,Barra Velha,SC,-48.6835,-26.6338
220117,Barra d`Alcântara,PI,-44.4062,-2.3957
290280,Barra da Estiva,BA,-41.3278,-13.627
260130,Barra de Guabiraba,PE,-35.6585,-8.4208
250160,Barra de Santa Rosa,PB,-36.0565,-6.7218
250157,Barra de Santana,PB,-35.9989,-7.5231
270050,Barra de Santo Antônio,AL,-35.5118,-9.4038
320090,Barra de São Francisco,ES,-40.8965,-18.7548
270060,Barra de São Miguel,AL,-35.8838,-9.8261
250170,Barra de São Miguel,PB,-35.8838,-9.8261
510170,Barra do Bugres,MT,-57.1854,-15.0684
350535,Barra do Chapéu,SP,-49.0238,-24.4722
290290,Barra do Choça,BA,-40.5762,-14.8638
210160,Barra do Corda,MA,-45.2485,-5.4968
510180,Barra do Garças,MT,-52.2615,-15.8916
430185,Barra do Guarita,RS,-53.7138,-27.1885
410270,Barra do Jacaré,PR,-50.1814,-23.1152
290300,Barra do Mendes,BA,-42.0594,-11.8063
170307,Barra do Ouro,TO,-47.6776,-7.6959
330030,Barra do Piraí,RJ,-43.8263,-22.4703
430187,Barra do Quaraí,RS,-57.551,-30.2086
430190,Barra do Ribeiro,RS,-51.3612,-30.3443
430192,Barra do Rio Azul,RS,-52.4117,-27.4102
290310,Barra do Rocha,BA,-39.6004,-14.2091
350540,Barra do Turvo,SP,-48.5057,-24.7564
280060,Barra dos Coqueiros,SE,-37.0386,-10.9076
410260,Barracão,PR,-53.6347,-26.2521
430180,Barracão,RS,-53.6347,-26.2521
220120,Barras,PI,-42.2921,-4.2447
230195,Barreira,CE,-38.6429,-4.2892
290320,Barreiras,BA,-44.9968,-12.1439
220130,Barreiras do Piauí,PI,-45.4702,-9.9296
130050,Barreirinha,AM,-57.0679,-2.7989
210170,Barreirinhas,MA,-42.8232,-2.7586
260140,Barreiros,PE,-35.1832,-8.816
350550,Barretos,SP,-48.5698,-20.5531
350560,Barrinha,SP,-48.1551,-21.1899
230200,Barro,CE,-38.7742,-7.1714
290323,Barro Alto,BA,-48.9191,-14.9696
520320,Barro Alto,GO,-48.9191,-14.9696
220140,Barro Duro,PI,-42.5104,-5.8196
290330,Barro Preto,BA,-39.4728,-14.8068
290327,Barrocas,BA,-39.0777,-11.5315
170310,Barrolândia,TO,-48.7264,-9.8372
230205,Barroquinha,CE,-41.1334,-3.0213
430200,Barros Cassal,RS,-52.5836,-29.0947
310590,Barroso,MG,-43.9761,-21.1872
350570,Barueri,SP,-46.8765,-23.5112
430165,Barão,RS,-51.4949,-29.3725
350500,Barão de Antonina,SP,-49.5632,-23.6296
310540,Barão de Cocais,MG,-43.4869,-19.9461
430170,Barão de Cotegipe,RS,-52.3798,-27.6208
210150,Barão de Grajaú,MA,-43.0262,-6.7518
510160,Barão de Melgaço,MT,-55.9476,-16.1912
310550,Barão de Monte Alto,MG,-42.2375,-21.2447
430175,Barão do Triunfo,RS,-51.7375,-30.391
350580,Bastos,SP,-50.7344,-21.92
500190,Bataguassu,MS,-52.4221,-21.7159
270070,Batalha,AL,-42.0787,-4.0223
220150,Batalha,PI,-42.0787,-4.0223
350590,Batatais,SP,-47.5921,-20.8929
500200,Batayporã,MS,-53.1768,-22.465
230210,Baturité,CE,-38.8823,-4.3295
350600,Bauru,SP,-49.0706,-22.3218
250180,Bayeux,PB,-34.9365,-7.1302
240140,Baía Formosa,RN,-35.0064,-6.3692
250140,Baía da Traição,PB,-34.9391,-6.6897
350610,Bebedouro,SP,-48.4791,-20.9491
230220,Beberibe,CE,-38.1298,-4.181
230230,Bela Cruz,CE,-40.1693,-3.0554
500210,Bela Vista,MS,-56.5317,-22.1073
410275,Bela Vista da Caroba,PR,-53.6673,-25.8793
520330,Bela Vista de Goiás,GO,-48.9513,-16.9693
310600,Bela Vista de Minas,MG,-43.0974,-19.829
210177,Bela Vista do Maranhão,MA,-45.2514,-3.7416
410280,Bela Vista do Paraíso,PR,-51.1927,-22.9937
220155,Bela Vista do Piauí,PI,-41.8675,-7.9881
420213,Bela Vista do Toldo,SC,-50.4664,-26.2746
330045,Belford Roxo,RJ,-43.4034,-22.7667
310610,Belmiro Braga,MG,-43.4136,-21.9486
290340,Belmonte,BA,-38.8793,-15.8631
420215,Belmonte,SC,-38.8793,-15.8631
290350,Belo Campo,BA,-41.2585,-15.0338
310620,Belo Horizonte,MG,-43.9451,-19.9227
260170,Belo Jardim,PE,-36.4176,-8.3338
270090,Belo Monte,AL,-37.2774,-9.8281
310630,Belo Oriente,MG,-42.4807,-19.2233
310640,Belo Vale,MG,-44.0242,-20.4078
150145,Belterra,PA,-54.9374,-2.6361
210173,Belágua,MA,-43.5122,-3.1549
270080,Belém,AL,-48.4682,-1.4506
250190,Belém,PB,-48.4682,-1.4506
150140,Belém,PA,-48.4682,-1.4506
260150,Belém de Maria,PE,-35.83,-8.6256
250200,Belém do Brejo do Cruz,PB,-37.4942,-6.3426
220157,Belém do Piauí,PI,-40.9705,-7.3774
260160,Belém do São Francisco,PE,-38.9817,-8.5339
220160,Beneditinos,PI,-42.3638,-5.4568
210180,Benedito Leite,MA,-44.5541,-7.2185
420220,Benedito Novo,SC,-49.363,-26.7841
150150,Benevides,PA,-48.2522,-1.3556
130060,Benjamin Constant,AM,-70.033,-4.3813
430205,Benjamin Constant do Sul,RS,-52.6008,-27.5106
240160,Bento Fernandes,RN,-35.8207,-5.6927
430210,Bento Gonçalves,RS,-51.5209,-29.1654
350620,Bento de Abreu,SP,-50.8116,-21.2719
210190,Bequimão,MA,-44.7857,-2.4494
310650,Berilo,MG,-42.4644,-16.9516
310665,Berizal,MG,-41.7417,-15.6119
250205,Bernardino Batista,PB,-38.5495,-6.4532
350630,Bernardino de Campos,SP,-49.4761,-23.014
170320,Bernardo Sayão,TO,-48.8893,-7.8748
210193,Bernardo do Mearim,MA,-44.7608,-4.6267
350635,Bertioga,SP,-46.1396,-23.8486
220170,Bertolínia,PI,-43.9498,-7.6334
310660,Bertópolis,MG,-40.5739,-17.0633
130063,Beruri,AM,-61.3717,-3.9007
310670,Betim,MG,-44.1983,-19.9681
260180,Betânia,PE,-38.0352,-8.2743
220173,Betânia do Piauí,PI,-40.7989,-8.1438
260190,Bezerros,PE,-35.796,-8.2328
310680,Bias Fortes,MG,-43.7569,-21.6058
310690,Bicas,MG,-43.0604,-21.7214
420230,Biguaçu,SC,-48.6598,-27.496
350640,Bilac,SP,-50.4746,-21.404
310700,Biquinhas,MG,-45.5022,-18.7836
350650,Birigui,SP,-50.3432,-21.291
350660,Biritiba-Mirim,SP,-46.0407,-23.5698
290360,Biritinga,BA,-38.8067,-11.6228
410290,Bituruna,PR,-51.5533,-26.1613
420240,Blumenau,SC,-49.0658,-26.9196
320100,Boa Esperança,ES,-40.2904,-18.5395
310710,Boa Esperança,MG,-40.2904,-18.5395
410300,Boa Esperança,PR,-40.2904,-18.5395
410302,Boa Esperança do Iguaçu,PR,-53.2139,-25.6363
350670,Boa Esperança do Sul,SP,-48.3876,-21.9937
220177,Boa Hora,PI,-42.1357,-4.414
290370,Boa Nova,BA,-40.2063,-14.3659
250210,Boa Ventura,PB,-38.2157,-7.4202
410304,Boa Ventura de São Roque,PR,-51.5441,-24.8818
230240,Boa Viagem,CE,-39.7337,-5.1126
250215,Boa Vista,PB,-60.6724,2.8208
140010,Boa Vista,RR,-60.6724,2.8208
410305,Boa Vista da Aparecida,PR,-53.4068,-25.4357
430215,Boa Vista das Missões,RS,-53.3119,-27.6657
430220,Boa Vista do Buricá,RS,-54.1112,-27.6688
430222,Boa Vista do Cadeado,RS,-53.8117,-28.5786
210197,Boa Vista do Gurupi,MA,-46.3072,-1.7981
430223,Boa Vista do Incra,RS,-53.3868,-28.8195
130068,Boa Vista do Ramos,AM,-57.5864,-2.9705
430225,Boa Vista do Sul,RS,-51.6687,-29.3544
290380,Boa Vista do Tupim,BA,-40.6084,-12.6606
270100,Boca da Mata,AL,-36.2117,-9.6452
130070,Boca do Acre,AM,-67.3931,-8.7553
220180,Bocaina,PI,-48.5295,-22.1442
350680,Bocaina,SP,-48.5295,-22.1442
310720,Bocaina de Minas,MG,-44.3947,-22.1678
420243,Bocaina do Sul,SC,-49.9423,-27.7455
310730,Bocaiúva,MG,-43.815,-17.1078
410310,Bocaiúva do Sul,PR,-49.1141,-25.2066
260200,Bodocó,PE,-39.9338,-7.7776
500215,Bodoquena,MS,-56.677,-20.5509
240165,Bodó,RN,-36.4135,-5.9866
350690,Bofete,SP,-48.2611,-23.102
350700,Boituva,SP,-47.6787,-23.2855
260210,Bom Conselho,PE,-36.6857,-9.1692
310740,Bom Despacho,MG,-45.2517,-19.7375
210200,Bom Jardim,MA,-42.4187,-22.1515
260220,Bom Jardim,PE,-42.4187,-22.1515
330050,Bom Jardim,RJ,-42.4187,-22.1515
420250,Bom Jardim da Serra,SC,-49.6256,-28.338
520340,Bom Jardim de Goiás,GO,-52.1728,-16.2063
310750,Bom Jardim de Minas,MG,-44.1906,-21.9476
250220,Bom Jesus,PB,-44.359,-9.0712
220190,Bom Jesus,PI,-44.359,-9.0712
240170,Bom Jesus,RN,-44.359,-9.0712
430230,Bom Jesus,RS,-44.359,-9.0712
420253,Bom Jesus,SC,-44.359,-9.0712
290390,Bom Jesus da Lapa,BA,-43.4108,-13.2506
310760,Bom Jesus da Penha,MG,-46.5227,-21.0165
290395,Bom Jesus da Serra,BA,-40.5047,-14.3724
210203,Bom Jesus das Selvas,MA,-46.8527,-4.4878
520350,Bom Jesus de Goiás,GO,-49.7397,-18.2175
310770,Bom Jesus do Amparo,MG,-43.4752,-19.7045
510185,Bom Jesus do Araguaia,MT,-51.5057,-12.1729
310780,Bom Jesus do Galho,MG,-42.3169,-19.8287
330060,Bom Jesus do Itabapoana,RJ,-41.6801,-21.1341
320110,Bom Jesus do Norte,ES,-41.6712,-21.1222
420257,Bom Jesus do Oeste,SC,-53.0967,-26.6927
410315,Bom Jesus do Sul,PR,-53.6002,-26.1923
150157,Bom Jesus do Tocantins,PA,-48.165,-8.9631
170330,Bom Jesus do Tocantins,TO,-48.165,-8.9631
350710,Bom Jesus dos Perdões,SP,-46.4645,-23.1327
210207,Bom Lugar,MA,-45.0326,-4.3731
430235,Bom Princípio,RS,-51.3567,-29.4898
220191,Bom Princípio do Piauí,PI,-41.6403,-3.1963
430237,Bom Progresso,RS,-53.866,-27.5498
310790,Bom Repouso,MG,-46.1485,-22.4657
420260,Bom Retiro,SC,-49.487,-27.799
430240,Bom Retiro do Sul,RS,-51.943,-29.6076
310800,Bom Sucesso,MG,-44.7583,-21.0333
410320,Bom Sucesso,PR,-44.7583,-21.0333
250230,Bom Sucesso,PB,-44.7583,-21.0333
350715,Bom Sucesso de Itararé,SP,-49.1446,-24.319
410322,Bom Sucesso do Sul,PR,-52.8349,-26.0749
420245,Bombinhas,SC,-48.4876,-27.1519
310810,Bonfim,MG,-44.2386,-20.3267
140015,Bonfim,RR,-44.2386,-20.3267
220192,Bonfim do Piauí,PI,-42.8835,-9.1809
520355,Bonfinópolis,GO,-48.9616,-16.6173
310820,Bonfinópolis de Minas,MG,-45.9864,-16.566
290400,Boninal,BA,-41.83,-12.7095
290405,Bonito,BA,-35.7292,-8.4716
500220,Bonito,MS,-35.7292,-8.4716
150160,Bonito,PA,-35.7292,-8.4716
260230,Bonito,PE,-35.7292,-8.4716
310825,Bonito de Minas,MG,-44.7544,-15.3191
250240,Bonito de Santa Fé,PB,-38.5147,-7.3143
520357,Bonópolis,GO,-49.8329,-13.6493
250250,Boqueirão,PB,-36.1309,-7.487
430245,Boqueirão do Leão,RS,-52.4297,-29.3033
220194,Boqueirão do Piauí,PI,-42.1212,-4.4818
280067,Boquim,SE,-37.6204,-11.145
290410,Boquira,BA,-42.7271,-12.8185
350730,Boracéia,SP,-48.7805,-22.1953
130080,Borba,AM,-59.5948,-4.3935
250270,Borborema,PB,-49.0743,-21.6212
350740,Borborema,SP,-49.0743,-21.6212
310830,Borda da Mata,MG,-46.1653,-22.2742
350745,Borebi,SP,-48.9715,-22.57
410330,Borrazópolis,PR,-51.5851,-23.9393
350720,Borá,SP,-50.5444,-22.2701
430250,Bossoroca,RS,-54.912,-28.7279
310840,Botelhos,MG,-46.3947,-21.65
350750,Botucatu,SP,-48.4411,-22.888
310850,Botumirim,MG,-43.0111,-16.8628
290420,Botuporã,BA,-42.5198,-13.3745
420270,Botuverá,SC,-49.0689,-27.2007
430258,Bozano,RS,-53.7709,-28.3671
430260,Braga,RS,-53.7405,-27.6173
410335,Braganey,PR,-53.1185,-24.818
150170,Bragança,PA,-46.7635,-1.0574
350760,Bragança Paulista,SP,-46.5419,-22.952
270110,Branquinha,AL,-36.0152,-9.2478
150172,Brasil Novo,PA,-52.5392,-3.3056
220196,Brasileira,PI,-41.7834,-4.1315
500230,Brasilândia,MS,-52.0365,-21.2544
310855,Brasilândia de Minas,MG,-46.0087,-17.0096
410337,Brasilândia do Sul,PR,-53.5275,-24.1978
170360,Brasilândia do Tocantins,TO,-48.4822,-8.3892
120010,Brasiléia,AC,-68.7488,-11.001
510190,Brasnorte,MT,-58.005,-12.1227
530010,Brasília,DF,-47.8823,-15.7934
310860,Brasília de Minas,MG,-44.4306,-16.2075
520360,Brazabrantes,GO,-49.3858,-16.4292
310890,Brazópolis,MG,-45.6166,-22.4743
420280,Braço do Norte,SC,-49.1623,-28.2729
420285,Braço do Trombudo,SC,-49.8821,-27.3586
350770,Braúna,SP,-50.3175,-21.5015
310880,Braúnas,MG,-42.7161,-19.0556
320115,Brejetuba,ES,-41.289,-20.1433
260250,Brejinho,PE,-35.3583,-6.1958
240180,Brejinho,RN,-35.3583,-6.1958
170370,Brejinho de Nazaré,TO,-48.5723,-11.0206
210210,Brejo,MA,-42.7529,-3.6804
350775,Brejo Alegre,SP,-50.185,-21.1671
280070,Brejo Grande,SE,-36.4668,-10.4287
150175,Brejo Grande do Araguaia,PA,-48.4015,-5.704
230250,Brejo Santo,CE,-38.9859,-7.491
260260,Brejo da Madre de Deus,PE,-36.3713,-8.141
210215,Brejo de Areia,MA,-45.5822,-4.3346
250280,Brejo do Cruz,PB,-37.4942,-6.3426
220198,Brejo do Piauí,PI,-42.836,-8.2076
250290,Brejo dos Santos,PB,-37.8243,-6.3769
290440,Brejolândia,BA,-43.9612,-12.4844
260240,Brejão,PE,-36.566,-9.0291
290430,Brejões,BA,-39.791,-13.1034
150178,Breu Branco,PA,-49.5673,-3.7789
150180,Breves,PA,-50.4791,-1.6804
520380,Britânia,GO,-51.1602,-15.2428
430265,Brochier,RS,-51.5963,-29.5536
350780,Brodowski,SP,-47.6572,-20.9845
350790,Brotas,SP,-48.1202,-22.2836
290450,Brotas de Macaúbas,BA,-42.6283,-12.0008
310900,Brumadinho,MG,-44.2,-20.1436
290460,Brumado,BA,-41.6701,-14.2025
420287,Brunópolis,SC,-50.8376,-27.311
420290,Brusque,SC,-48.9136,-27.0965
310870,Brás Pires,MG,-43.2431,-20.8483
310910,Bueno Brandão,MG,-46.3518,-22.442
260270,Buenos Aires,PE,-35.3182,-7.7245
310920,Buenópolis,MG,-44.1749,-17.8757
290470,Buerarema,BA,-39.3008,-14.9571
310925,Bugre,MG,-42.2556,-19.4258
120013,Bujari,AC,-67.9521,-9.831
150190,Bujaru,PA,-48.0411,-1.5169
350800,Buri,SP,-48.5989,-23.7985
350810,Buritama,SP,-50.1448,-21.0664
210220,Buriti,MA,-42.9231,-3.9409
520390,Buriti Alegre,GO,-49.0404,-18.1378
210230,Buriti Bravo,MA,-43.8368,-5.8392
520393,Buriti de Goiás,GO,-50.4287,-16.1806
170380,Buriti do Tocantins,TO,-48.2257,-5.3187
220200,Buriti dos Lopes,PI,-41.8707,-3.1777
220202,Buriti dos Montes,PI,-41.0933,-5.3058
210232,Buriticupu,MA,-46.4517,-4.3227
520396,Buritinópolis,GO,-46.4293,-14.4589
290475,Buritirama,BA,-43.6362,-10.7148
210235,Buritirana,MA,-47.0141,-5.5913
310930,Buritis,MG,-46.4239,-15.6214
110045,Buritis,RO,-46.4239,-15.6214
350820,Buritizal,SP,-47.7088,-20.1913
310940,Buritizeiro,MG,-44.9648,-17.3668
430270,Butiá,RS,-51.9692,-30.1257
260280,Buíque,PE,-37.1573,-8.624
350480,Bálsamo,SP,-49.5807,-20.7344
130083,Caapiranga,AM,-61.2206,-3.3154
250300,Caaporã,PB,-34.9154,-7.5102
500240,Caarapó,MS,-54.8241,-22.6349
290480,Caatiba,BA,-40.4092,-14.9783
250310,Cabaceiras,PB,-36.2861,-7.4899
290485,Cabaceiras do Paraguaçu,BA,-39.1901,-12.5378
310945,Cabeceira Grande,MG,-47.0906,-16.0297
520400,Cabeceiras,GO,-46.9265,-15.7995
220205,Cabeceiras do Piauí,PI,-42.3069,-4.4773
250320,Cabedelo,PB,-34.8352,-6.9732
110003,Cabixi,RO,-60.552,-13.4945
330070,Cabo Frio,RJ,-42.0189,-22.8804
310950,Cabo Verde,MG,-46.3965,-21.4743
260290,Cabo de Santo Agostinho,PE,-35.0321,-8.2839
350840,Cabreúva,SP,-47.1331,-23.3075
260300,Cabrobó,PE,-39.3103,-8.5101
350830,Cabrália Paulista,SP,-49.3386,-22.4563
110060,Cacaulândia,RO,-62.9043,-10.349
430290,Cacequi,RS,-54.8236,-29.8861
290490,Cachoeira,BA,-38.9671,-12.5986
520410,Cachoeira Alta,GO,-50.9432,-18.7618
520425,Cachoeira Dourada,GO,-49.4766,-18.4859
310980,Cachoeira Dourada,MG,-49.4766,-18.4859
210237,Cachoeira Grande,MA,-44.0528,-2.9307
350860,Cachoeira Paulista,SP,-45.0154,-22.6665
310960,Cachoeira da Prata,MG,-44.4531,-19.5247
520420,Cachoeira de Goiás,GO,-50.6436,-16.6688
310970,Cachoeira de Minas,MG,-45.7796,-22.3554
310270,Cachoeira de Pajeú,MG,-41.4967,-15.9658
150200,Cachoeira do Arari,PA,-48.9566,-1.0109
150195,Cachoeira do Piriá,PA,-46.5459,-1.7597
430300,Cachoeira do Sul,RS,-52.8917,-30.0403
250330,Cachoeira dos Índios,PB,-38.6746,-6.9252
330080,Cachoeiras de Macacu,RJ,-42.6534,-22.4627
260310,Cachoeirinha,PE,-51.1036,-29.9471
430310,Cachoeirinha,RS,-51.1036,-29.9471
170382,Cachoeirinha,TO,-51.1036,-29.9471
320120,Cachoeiro de Itapemirim,ES,-41.1113,-20.8481
250340,Cacimba de Areia,PB,-37.1575,-7.1289
250350,Cacimba de Dentro,PB,-35.7907,-6.6419
250355,Cacimbas,PB,-37.0594,-7.2125
270120,Cacimbinhas,AL,-36.9911,-9.4012
430320,Cacique Doble,RS,-51.6617,-27.7698
110004,Cacoal,RO,-61.4421,-11.4333
350870,Caconde,SP,-46.6437,-21.528
290500,Caculé,BA,-42.2233,-14.4991
290515,Caetanos,BA,-40.9086,-14.3387
310990,Caetanópolis,MG,-44.4138,-19.2947
290520,Caetité,BA,-42.4852,-14.0692
311000,Caeté,MG,-43.6703,-19.8978
260320,Caetés,PE,-36.6268,-8.7803
290530,Cafarnaum,BA,-41.4688,-11.6914
410340,Cafeara,PR,-51.7142,-22.789
410345,Cafelândia,PR,-49.6092,-21.8031
350880,Cafelândia,SP,-49.6092,-21.8031
410347,Cafezal do Sul,PR,-53.5124,-23.9005
350890,Caiabu,SP,-51.2357,-22.0143
311010,Caiana,MG,-41.9247,-20.6956
520440,Caiapônia,GO,-51.8091,-16.9539
430330,Caibaté,RS,-54.6454,-28.2905
420310,Caibi,SC,-53.2486,-27.0748
240200,Caicó,RN,-37.0972,-6.4595
350900,Caieiras,SP,-46.7485,-23.3645
290540,Cairu,BA,-39.0456,-13.4861
350910,Caiuá,SP,-51.9887,-21.8319
250360,Caiçara,PB,-53.431,-27.275
430340,Caiçara,RS,-53.431,-27.275
240185,Caiçara do Norte,RN,-36.0561,-5.0645
240190,Caiçara do Rio do Vento,RN,-36.0009,-5.758
350920,Cajamar,SP,-46.8769,-23.3561
210240,Cajapió,MA,-44.6747,-2.8779
210250,Cajari,MA,-45.0119,-3.3213
350925,Cajati,SP,-48.1078,-24.7272
250370,Cajazeiras,PB,-38.557,-6.8898
220207,Cajazeiras do Piauí,PI,-42.3933,-6.7931
250375,Cajazeirinhas,PB,-37.8009,-6.9602
350930,Cajobi,SP,-48.8109,-20.8779
270130,Cajueiro,AL,-36.1524,-9.3996
220208,Cajueiro da Praia,PI,-41.3408,-2.9311
311020,Cajuri,MG,-42.7954,-20.7901
350940,Cajuru,SP,-47.303,-21.2749
311030,Caldas,MG,-46.3861,-21.9236
250380,Caldas Brandão,PB,-35.3255,-7.1028
520450,Caldas Novas,GO,-48.625,-17.745
520455,Caldazinha,GO,-49.0013,-16.7117
290550,Caldeirão Grande,BA,-40.3041,-11.0208
220209,Caldeirão Grande do Piauí,PI,-40.6374,-7.3311
410350,Califórnia,PR,-51.3555,-23.6673
420315,Calmon,SC,-51.0993,-26.6024
260340,Calumbi,PE,-38.1517,-7.939
260330,Calçado,PE,-36.3352,-8.7413
160020,Calçoene,AP,-50.954,2.4982
290560,Camacan,BA,-39.493,-15.4167
311040,Camacho,MG,-45.1567,-20.6256
250390,Camalaú,PB,-36.8242,-7.885
290580,Camamu,BA,-39.1061,-13.9438
311050,Camanducaia,MG,-46.1444,-22.7553
500260,Camapuã,MS,-54.0353,-19.5265
430350,Camaquã,RS,-51.8076,-30.8525
260345,Camaragibe,PE,-34.9811,-8.0214
430355,Camargo,RS,-52.2003,-28.588
290570,Camaçari,BA,-38.3261,-12.6998
410360,Cambará,PR,-50.0753,-23.0423
430360,Cambará do Sul,RS,-50.1438,-29.0484
410380,Cambira,PR,-51.581,-23.6003
420320,Camboriú,SC,-48.6536,-27.0274
330090,Cambuci,RJ,-41.9108,-21.575
311070,Cambuquira,MG,-45.2954,-21.8531
311060,Cambuí,MG,-46.0572,-22.6123
410370,Cambé,PR,-51.28,-23.2783
150210,Cametá,PA,-49.4958,-2.2444
230260,Camocim,CE,-40.8544,-2.9005
260350,Camocim de São Félix,PE,-35.7653,-8.3586
311090,Campanha,MG,-45.4022,-21.8367
311080,Campanário,MG,-41.7292,-18.2386
270135,Campestre,AL,-46.2464,-21.7111
311100,Campestre,MG,-46.2464,-21.7111
430367,Campestre da Serra,RS,-51.0963,-28.7947
520460,Campestre de Goiás,GO,-49.695,-16.7624
210255,Campestre do Maranhão,MA,-47.3625,-6.1707
250400,Campina Grande,PB,-35.8771,-7.2247
410400,Campina Grande do Sul,PR,-49.0545,-25.3046
311110,Campina Verde,MG,-49.4864,-19.5353
410390,Campina da Lagoa,PR,-52.8039,-24.5938
430370,Campina das Missões,RS,-54.8416,-27.9888
350945,Campina do Monte Alegre,SP,-48.4802,-23.5936
410395,Campina do Simão,PR,-51.8077,-25.1086
350950,Campinas,SP,-47.0608,-22.9056
220210,Campinas do Piauí,PI,-41.8819,-7.659
430380,Campinas do Sul,RS,-52.6247,-27.7177
520465,Campinaçu,GO,-48.5704,-13.787
520470,Campinorte,GO,-49.1511,-14.3137
510260,Campinápolis,MT,-52.7971,-14.5404
270140,Campo Alegre,AL,-36.3576,-9.7799
420330,Campo Alegre,SC,-36.3576,-9.7799
520480,Campo Alegre de Goiás,GO,-47.7793,-17.6338
290590,Campo Alegre de Lourdes,BA,-43.0126,-9.5222
220211,Campo Alegre do Fidalgo,PI,-41.8364,-8.3754
311115,Campo Azul,MG,-44.8134,-16.5079
311120,Campo Belo,MG,-45.2772,-20.8975
420340,Campo Belo do Sul,SC,-50.7587,-27.8988
430390,Campo Bom,RS,-51.0606,-29.6747
410405,Campo Bonito,PR,-52.993,-25.0328
420350,Campo Erê,SC,-53.079,-26.3947
311140,Campo Florido,MG,-48.5722,-19.7608
290600,Campo Formoso,BA,-40.32,-10.5106
270150,Campo Grande,AL,-54.6163,-20.464
500270,Campo Grande,MS,-54.6163,-20.464
220213,Campo Grande do Piauí,PI,-41.0315,-7.1283
410420,Campo Largo,PR,-49.5271,-25.4598
220217,Campo Largo do Piauí,PI,-42.6294,-3.8109
350960,Campo Limpo Paulista,SP,-46.7889,-23.2078
520485,Campo Limpo de Goiás,GO,-49.0895,-16.2971
410425,Campo Magro,PR,-49.4497,-25.3692
220220,Campo Maior,PI,-42.1626,-4.8269
410430,Campo Mourão,PR,-52.378,-24.0463
430400,Campo Novo,RS,-53.8052,-27.6792
110070,Campo Novo de Rondônia,RO,-63.62,-10.5704
510263,Campo Novo do Parecis,MT,-57.8907,-13.6587
240210,Campo Redondo,RN,-36.183,-6.242
510267,Campo Verde,MT,-55.1591,-15.5434
280100,Campo do Brito,SE,-37.4942,-10.7496
311130,Campo do Meio,MG,-45.8302,-21.1072
410410,Campo do Tenente,PR,-49.6845,-25.9814
311150,Campos Altos,MG,-46.1714,-19.6964
520490,Campos Belos,GO,-46.7681,-13.035
430410,Campos Borges,RS,-52.9998,-28.8859
311160,Campos Gerais,MG,-45.7584,-21.2333
170384,Campos Lindos,TO,-46.8021,-7.975
420360,Campos Novos,SC,-51.2224,-27.3963
350980,Campos Novos Paulista,SP,-51.2224,-27.3963
230270,Campos Sales,CE,-40.374,-7.0743
520495,Campos Verdes,GO,-49.6575,-14.2709
510268,Campos de Júlio,MT,-59.2645,-13.7224
350970,Campos do Jordão,SP,-45.5915,-22.7399
330100,Campos dos Goytacazes,RJ,-41.3327,-21.7559
260360,Camutanga,PE,-35.3017,-7.4352
311190,Cana Verde,MG,-45.1818,-21.0213
510269,Canabrava do Norte,MT,-51.8302,-11.0516
350990,Cananéia,SP,-47.9316,-25.0105
270160,Canapi,AL,-37.6012,-9.1174
290620,Canarana,BA,-52.2691,-13.5565
510270,Canarana,MT,-52.2691,-13.5565
350995,Canas,SP,-45.0521,-22.7003
220225,Canavieira,PI,-43.7233,-7.6882
290630,Canavieiras,BA,-38.945,-15.679
311170,Canaã,MG,-42.62,-20.6856
150215,Canaã dos Carajás,PA,-49.8517,-6.5297
290640,Candeal,BA,-39.1207,-11.8053
290650,Candeias,BA,-38.5406,-12.6694
311200,Candeias,MG,-38.5406,-12.6694
110080,Candeias do Jamari,RO,-63.7019,-8.795
430420,Candelária,RS,-52.7895,-29.6684
290660,Candiba,BA,-42.8714,-14.4125
430435,Candiota,RS,-53.7195,-31.5452
410442,Candói,PR,-52.0511,-25.5712
430440,Canela,RS,-50.8119,-29.356
420370,Canelinha,SC,-48.7658,-27.2616
240220,Canguaretama,RN,-35.1273,-6.3806
430450,Canguçu,RS,-52.6774,-31.3983
280110,Canhoba,SE,-36.9711,-10.1374
260370,Canhotinho,PE,-36.1979,-8.8765
230280,Canindé,CE,-39.3141,-4.3522
280120,Canindé de São Francisco,SE,-37.7925,-9.66
351015,Canitar,SP,-49.7852,-23.0047
430460,Canoas,RS,-51.1779,-29.9183
420380,Canoinhas,SC,-50.395,-26.1766
290680,Cansanção,BA,-39.4982,-10.6671
311205,Cantagalo,MG,-42.3683,-21.9811
410445,Cantagalo,PR,-42.3683,-21.9811
330110,Cantagalo,RJ,-42.3683,-21.9811
210270,Cantanhede,MA,-44.3779,-3.6355
220230,Canto do Buriti,PI,-42.9502,-8.1112
140017,Cantá,RR,-60.6058,2.6099
290682,Canudos,BA,-39.0235,-9.8984
430461,Canudos do Vale,RS,-52.2449,-29.3301
130090,Canutama,AM,-64.3835,-6.533
290610,Canápolis,BA,-49.2016,-18.7229
311180,Canápolis,MG,-49.2016,-18.7229
410450,Capanema,PR,-47.1808,-1.1958
150220,Capanema,PA,-47.1808,-1.1958
311210,Caparaó,MG,-41.905,-20.5233
270170,Capela,AL,-37.0553,-10.5049
280130,Capela,SE,-37.0553,-10.5049
311220,Capela Nova,MG,-43.6181,-20.9231
430468,Capela de Santana,RS,-51.3215,-29.6932
351030,Capela do Alto,SP,-47.7388,-23.4685
290685,Capela do Alto Alegre,BA,-39.8363,-11.6704
311230,Capelinha,MG,-42.5186,-17.6939
311240,Capetinga,MG,-47.0561,-20.6183
250403,Capim,PB,-35.172,-6.9174
311250,Capim Branco,MG,-44.1331,-19.5483
290687,Capim Grosso,BA,-40.0112,-11.3793
420390,Capinzal,SC,-51.611,-27.3441
210275,Capinzal do Norte,MA,-44.3256,-4.7297
311260,Capinópolis,MG,-49.5697,-18.6828
230290,Capistrano,CE,-38.9008,-4.4665
430469,Capitão,RS,-51.987,-29.2718
311265,Capitão Andrade,MG,-41.8597,-19.0675
311270,Capitão Enéas,MG,-43.7155,-16.3236
220245,Capitão Gervásio Oliveira,PI,-41.814,-8.4965
410460,Capitão Leônidas Marques,PR,-53.6112,-25.4816
150230,Capitão Poço,PA,-47.0638,-1.7447
220240,Capitão de Campos,PI,-41.9426,-4.4578
311280,Capitólio,MG,-46.0503,-20.6153
351040,Capivari,SP,-47.5072,-22.9951
420395,Capivari de Baixo,SC,-48.9631,-28.4498
430467,Capivari do Sul,RS,-50.5129,-30.1438
120017,Capixaba,AC,-67.6764,-10.574
260380,Capoeiras,PE,-36.6306,-8.7342
311290,Caputira,MG,-42.2703,-20.1719
420325,Capão Alto,SC,-50.5115,-27.9383
351020,Capão Bonito,SP,-48.349,-24.0049
430462,Capão Bonito do Sul,RS,-51.3945,-28.1274
430463,Capão da Canoa,RS,-50.0216,-29.7543
430465,Capão do Cipó,RS,-54.5922,-28.9446
430466,Capão do Leão,RS,-52.4996,-31.7649
140020,Caracaraí,RR,-61.1254,1.8276
500280,Caracol,MS,-57.0277,-22.011
220250,Caracol,PI,-57.0277,-22.011
351050,Caraguatatuba,SP,-45.4131,-23.6203
410465,Carambeí,PR,-50.1171,-24.9513
311310,Caranaíba,MG,-43.7386,-20.8756
311320,Carandaí,MG,-43.805,-20.9522
311330,Carangola,MG,-42.0294,-20.7331
330093,Carapebus,RJ,-41.6634,-22.187
351060,Carapicuíba,SP,-46.8407,-23.5235
311340,Caratinga,MG,-42.1406,-19.7901
130100,Carauari,AM,-66.8927,-4.8742
290690,Caravelas,BA,-39.266,-17.7297
430470,Carazinho,RS,-52.7942,-28.2982
430471,Caraá,RS,-50.4302,-29.7901
311300,Caraí,MG,-41.6973,-17.1879
290689,Caraíbas,BA,-41.2566,-14.725
250407,Caraúbas,PB,-37.5549,-5.7889
240230,Caraúbas,RN,-37.5549,-5.7889
220253,Caraúbas do Piauí,PI,-41.8425,-3.4752
311350,Carbonita,MG,-43.0136,-17.5309
290700,Cardeal da Silva,BA,-37.9494,-11.9428
351070,Cardoso,SP,-49.9183,-20.08
330115,Cardoso Moreira,RJ,-41.6153,-21.4895
311360,Careaçu,MG,-45.6949,-22.0441
130110,Careiro,AM,-60.3617,-3.8185
130115,Careiro da Várzea,AM,-59.8205,-3.1961
320130,Cariacica,ES,-40.4165,-20.2632
230300,Caridade,CE,-39.1949,-4.2316
220255,Caridade do Piauí,PI,-40.9882,-7.7319
290710,Carinhanha,BA,-43.7723,-14.2985
280140,Carira,SE,-37.7015,-10.3583
170386,Cariri do Tocantins,TO,-49.1604,-11.8883
230320,Caririaçu,CE,-39.2838,-7.0426
230310,Cariré,CE,-40.476,-3.9486
230330,Cariús,CE,-39.4967,-6.5349
510279,Carlinda,MT,-55.82,-9.9691
430480,Carlos Barbosa,RS,-51.5004,-29.2981
311370,Carlos Chagas,MG,-40.7633,-17.7031
430485,Carlos Gomes,RS,-51.9136,-27.7161
410470,Carlópolis,PR,-49.7194,-23.4225
330120,Carmo,RJ,-42.6092,-21.9342
311390,Carmo da Cachoeira,MG,-45.2233,-21.4606
311400,Carmo da Mata,MG,-44.8697,-20.5581
311410,Carmo de Minas,MG,-45.1324,-22.1217
311420,Carmo do Cajuru,MG,-44.7708,-20.1844
311430,Carmo do Paranaíba,MG,-46.3069,-18.9992
311440,Carmo do Rio Claro,MG,-46.1186,-20.9722
520500,Carmo do Rio Verde,GO,-49.708,-15.3549
170388,Carmolândia,TO,-48.3951,-7.0338
311380,Carmésia,MG,-43.1414,-19.0883
280150,Carmópolis,SE,-36.9849,-10.6484
311450,Carmópolis de Minas,MG,-44.6351,-20.5413
240250,Carnaubais,RN,-36.8337,-5.3393
230340,Carnaubal,CE,-40.9413,-4.1598
260392,Carnaubeira da Penha,PE,-38.7436,-8.3193
260390,Carnaíba,PE,-37.7947,-7.806
240240,Carnaúba dos Dantas,RN,-36.5931,-6.5561
311455,Carneirinho,MG,-50.6881,-19.6975
270180,Carneiros,AL,-37.3757,-9.4833
140023,Caroebe,RR,-59.6959,0.8842
210280,Carolina,MA,-47.4739,-7.3313
260400,Carpina,PE,-35.2514,-7.8457
311460,Carrancas,MG,-44.6436,-21.4911
250410,Carrapateira,PB,-38.3432,-7.0395
170389,Carrasco Bonito,TO,-48.0377,-5.3206
260410,Caruaru,PE,-35.9723,-8.283
210290,Carutapera,MA,-46.0206,-1.2017
311480,Carvalhos,MG,-44.4617,-22.0017
311470,Carvalhópolis,MG,-45.8408,-21.7781
351080,Casa Branca,SP,-47.0852,-21.7743
311490,Casa Grande,MG,-43.9297,-20.7931
290720,Casa Nova,BA,-40.9734,-9.1737
430490,Casca,RS,-51.9754,-28.5633
311500,Cascalho Rico,MG,-47.8755,-18.5765
230350,Cascavel,CE,-53.4361,-24.9617
410480,Cascavel,PR,-53.4361,-24.9617
170390,Caseara,TO,-49.9577,-9.2732
430495,Caseiros,RS,-51.6872,-28.2721
330130,Casimiro de Abreu,RJ,-42.204,-22.481
260415,Casinhas,PE,-35.7251,-7.7447
250415,Casserengue,PB,-35.8179,-6.7795
500290,Cassilândia,MS,-51.7349,-19.1136
150240,Castanhal,PA,-47.9224,-1.2927
510285,Castanheira,MT,-58.6089,-11.1392
110090,Castanheiras,RO,-61.9427,-11.4135
320140,Castelo,ES,-41.2034,-20.6034
220260,Castelo do Piauí,PI,-41.5521,-5.3203
520505,Castelândia,GO,-50.2208,-18.0891
351100,Castilho,SP,-51.4878,-20.8696
410490,Castro,PR,-49.9973,-24.7943
290730,Castro Alves,BA,-39.4281,-12.7617
311530,Cataguases,MG,-42.6967,-21.3894
520510,Catalão,GO,-47.9417,-18.1772
351110,Catanduva,SP,-48.9713,-21.1331
410500,Catanduvas,PR,-51.6602,-27.069
420400,Catanduvas,SC,-51.6602,-27.069
230360,Catarina,CE,-39.8795,-6.1342
311535,Catas Altas,MG,-43.4075,-20.0744
311540,Catas Altas da Noruega,MG,-43.4975,-20.6903
260420,Catende,PE,-35.7024,-8.6751
351120,Catiguá,SP,-49.0579,-21.0491
250420,Catingueira,PB,-37.6064,-7.1201
290740,Catolândia,BA,-44.8616,-12.3151
250430,Catolé do Rocha,PB,-37.747,-6.3406
290750,Catu,BA,-38.3791,-12.3513
311545,Catuji,MG,-41.5167,-17.3031
230365,Catunda,CE,-40.2014,-4.6485
290755,Caturama,BA,-42.2928,-13.3309
520520,Caturaí,GO,-49.4919,-16.4474
250435,Caturité,PB,-36.0207,-7.42
311547,Catuti,MG,-42.9628,-15.3597
430500,Catuípe,RS,-54.0132,-28.2554
230370,Caucaia,CE,-38.6593,-3.7301
520530,Cavalcante,GO,-47.4569,-13.7928
311550,Caxambu,MG,-44.9319,-21.977
420410,Caxambu do Sul,SC,-52.8792,-27.1613
210300,Caxias,MA,-43.3537,-4.8654
430510,Caxias do Sul,RS,-51.1794,-29.1685
220265,Caxingó,PI,-41.8955,-3.419
420300,Caçador,SC,-51.012,-26.7757
350850,Caçapava,SP,-45.7076,-23.0992
430280,Caçapava do Sul,RS,-53.4917,-30.5113
520430,Caçu,GO,-51.137,-18.5637
290510,Caém,BA,-40.4322,-11.091
240260,Ceará-Mirim,RN,-35.4247,-5.6432
210310,Cedral,MA,-49.2664,-20.9009
351130,Cedral,SP,-49.2664,-20.9009
230380,Cedro,CE,-39.0609,-6.6003
260430,Cedro,PE,-39.0609,-6.6003
280160,Cedro de São João,SE,-36.8816,-10.2507
311560,Cedro do Abaeté,MG,-45.7114,-19.1483
420415,Celso Ramos,SC,-51.3368,-27.6336
430511,Centenário,RS,-51.9984,-27.7608
170410,Centenário,TO,-51.9984,-27.7608
410510,Centenário do Sul,PR,-51.5951,-22.8215
290760,Central,BA,-42.1113,-11.1355
311570,Central de Minas,MG,-41.3064,-18.7619
210312,Central do Maranhão,MA,-44.8254,-2.1983
311580,Centralina,MG,-49.1955,-18.5843
210317,Centro Novo do Maranhão,MA,-46.1249,-2.1361
210315,Centro do Guilherme,MA,-46.0345,-2.4489
110005,Cerejeiras,RO,-60.8168,-13.187
520540,Ceres,GO,-49.6032,-15.3104
351140,Cerqueira César,SP,-49.1651,-23.0353
351150,Cerquilho,SP,-47.7434,-23.1627
430512,Cerrito,RS,-52.8152,-31.8546
410520,Cerro Azul,PR,-49.2615,-24.8245
430513,Cerro Branco,RS,-52.9355,-29.6658
240270,Cerro Corá,RN,-36.3465,-6.0413
430515,Cerro Grande,RS,-53.1672,-27.6106
430517,Cerro Grande do Sul,RS,-51.7517,-30.5963
430520,Cerro Largo,RS,-54.7428,-28.1463
420417,Cerro Negro,SC,-50.8746,-27.7966
351160,Cesário Lange,SP,-47.9545,-23.226
520545,Cezarina,GO,-49.7758,-16.9718
311600,Chalé,MG,-41.6878,-20.0436
430530,Chapada,RS,-53.0675,-28.0598
311615,Chapada Gaúcha,MG,-45.6285,-15.2946
170510,Chapada da Natividade,TO,-47.7539,-11.6119
170460,Chapada de Areia,TO,-49.1784,-10.1409
311610,Chapada do Norte,MG,-53.0675,-28.0598
510300,Chapada dos Guimarães,MT,-55.7499,-15.4643
210320,Chapadinha,MA,-43.3532,-3.7421
520547,Chapadão do Céu,GO,-52.6674,-18.3952
420419,Chapadão do Lageado,SC,-49.5539,-27.5905
500295,Chapadão do Sul,MS,-52.6258,-18.7874
420420,Chapecó,SC,-52.6185,-27.1013
351170,Charqueada,SP,-47.7755,-22.5096
430535,Charqueadas,RS,-51.6249,-29.955
430537,Charrua,RS,-52.0321,-27.9537
230390,Chaval,CE,-41.2435,-3.0357
355720,Chavantes,SP,-49.7072,-23.0406
150250,Chaves,PA,-49.6479,-0.0629
311620,Chiador,MG,-43.0572,-22.0028
430540,Chiapetta,RS,-53.9419,-27.9232
410540,Chopinzinho,PR,-52.5294,-25.8566
230395,Chorozinho,CE,-38.4997,-4.3006
290770,Chorrochó,BA,-39.0993,-8.9774
230393,Choró,CE,-39.1344,-4.8391
110092,Chupinguaia,RO,-60.9028,-12.5529
430544,Chuvisca,RS,-51.9785,-30.7558
430543,Chuí,RS,-53.4555,-33.69
311590,Chácara,MG,-43.2207,-21.6728
260450,Chã Grande,PE,-35.4571,-8.2383
270190,Chã Preta,AL,-36.2983,-9.2556
260440,Chã de Alegria,PE,-35.204,-8.0068
410550,Cianorte,PR,-52.6054,-23.6599
410560,Cidade Gaúcha,PR,-52.9444,-23.3817
520549,Cidade Ocidental,GO,-47.9445,-16.1001
210325,Cidelândia,MA,-47.7834,-5.1747
430545,Cidreira,RS,-50.2183,-30.1657
311630,Cipotânea,MG,-43.3656,-20.9053
290790,Cipó,BA,-38.5153,-11.0991
430550,Ciríaco,RS,-51.8764,-28.3429
311640,Claraval,MG,-47.2831,-20.3989
311650,Claro dos Poções,MG,-44.2117,-17.0758
351190,Clementina,SP,-50.4476,-21.5609
410570,Clevelândia,PR,-52.3514,-26.4041
510305,Cláudia,MT,-54.8783,-11.507
311660,Cláudio,MG,-44.7681,-20.4404
290800,Coaraci,BA,-39.5497,-14.6408
130120,Coari,AM,-63.1431,-4.0886
220270,Cocal,PI,-41.5561,-3.4688
220271,Cocal de Telha,PI,-41.9587,-4.5571
420425,Cocal do Sul,SC,-49.3334,-28.5987
220272,Cocal dos Alves,PI,-41.4402,-3.6205
510310,Cocalinho,MT,-51.0001,-14.3903
520551,Cocalzinho de Goiás,GO,-48.773,-15.7763
290810,Cocos,BA,-44.5345,-14.1819
130130,Codajás,AM,-62.0603,-3.8413
210330,Codó,MA,-43.8924,-4.4556
210340,Coelho Neto,MA,-43.0149,-4.2535
311670,Coimbra,MG,-42.8027,-20.8563
270200,Coité do Nóia,AL,-36.5845,-9.6335
220273,Coivaras,PI,-42.208,-5.0922
150260,Colares,PA,-48.2803,-0.9364
320150,Colatina,ES,-40.6264,-19.5479
351200,Colina,SP,-48.5387,-20.7114
210350,Colinas,MA,-51.8526,-29.3815
430558,Colinas,RS,-51.8526,-29.3815
520552,Colinas do Sul,GO,-48.073,-14.1556
170550,Colinas do Tocantins,TO,-48.4717,-8.0613
171670,Colméia,TO,-48.7529,-8.7322
510325,Colniza,MT,-59.2203,-9.4564
410580,Colombo,PR,-49.2243,-25.2925
410590,Colorado,PR,-51.9743,-22.8374
430560,Colorado,RS,-51.9743,-22.8374
110006,Colorado do Oeste,RO,-60.5454,-13.1174
311680,Coluna,MG,-42.8401,-18.2326
510320,Colíder,MT,-55.454,-10.8095
351210,Colômbia,SP,-48.6873,-20.1774
270210,Colônia Leopoldina,AL,-35.7214,-8.9181
220275,Colônia do Gurguéia,PI,-43.794,-8.1837
220277,Colônia do Piauí,PI,-42.1777,-7.232
170555,Combinado,TO,-46.5461,-12.8137
311690,Comendador Gomes,MG,-49.0814,-19.6992
330095,Comendador Levy Gasparian,RJ,-43.2047,-22.0287
311700,Comercinho,MG,-41.7931,-16.2961
510330,Comodoro,MT,-59.7869,-13.6581
250440,Conceição,PB,-38.5416,-7.5519
311710,Conceição da Aparecida,MG,-46.2044,-21.0942
320160,Conceição da Barra,ES,-39.7372,-18.5841
311520,Conceição da Barra de Minas,MG,-39.7372,-18.5841
290820,Conceição da Feira,BA,-39.0002,-12.5013
311730,Conceição das Alagoas,MG,-48.3803,-19.9194
311720,Conceição das Pedras,MG,-45.4542,-22.16
311740,Conceição de Ipanema,MG,-41.6939,-19.9283
330140,Conceição de Macabu,RJ,-41.868,-22.085
290830,Conceição do Almeida,BA,-39.1692,-12.7773
150270,Conceição do Araguaia,PA,-49.2677,-8.2697
220280,Conceição do Canindé,PI,-41.5942,-7.8764
320170,Conceição do Castelo,ES,-41.2417,-20.3639
290840,Conceição do Coité,BA,-39.284,-11.5629
290850,Conceição do Jacuípe,BA,-38.7684,-12.3268
210355,Conceição do Lago-Açu,MA,-44.8931,-3.841
311750,Conceição do Mato Dentro,MG,-43.4253,-19.0372
311760,Conceição do Pará,MG,-44.8969,-19.7522
311770,Conceição do Rio Verde,MG,-45.0869,-21.8811
170560,Conceição do Tocantins,TO,-47.2951,-12.2209
311780,Conceição dos Ouros,MG,-45.7978,-22.4131
351220,Conchal,SP,-47.1729,-22.3375
351230,Conchas,SP,-48.011,-23.0192
420430,Concórdia,SC,-52.023,-27.2314
150275,Concórdia do Pará,PA,-47.945,-1.9924
250450,Condado,PB,-37.5966,-6.9092
260460,Condado,PE,-37.5966,-6.9092
290860,Conde,BA,-34.9054,-7.26
250460,Conde,PB,-34.9054,-7.26
290870,Condeúba,BA,-41.9718,-14.9022
430570,Condor,RS,-53.4845,-28.2058
311787,Confins,MG,-43.9912,-19.6279
510335,Confresa,MT,-51.5699,-10.6437
250470,Congo,PB,-36.6602,-7.7958
311790,Congonhal,MG,-46.0405,-22.1533
311800,Congonhas,MG,-43.8565,-20.5015
311810,Congonhas do Norte,MG,-43.8565,-20.5015
410600,Congonhinhas,PR,-50.552,-23.5497
311820,Conquista,MG,-47.5431,-19.9369
510336,Conquista d`Oeste,MT,-59.542790,-14.538626
311830,Conselheiro Lafaiete,MG,-43.7857,-20.6596
410610,Conselheiro Mairinck,PR,-50.1707,-23.623
311840,Conselheiro Pena,MG,-41.472,-19.1721
311850,Consolação,MG,-45.9211,-22.5514
430580,Constantina,RS,-52.993,-27.7332
311860,Contagem,MG,-44.0841,-19.9133
410620,Contenda,PR,-49.535,-25.6788
290880,Contendas do Sincorá,BA,-41.0421,-13.7612
311870,Coqueiral,MG,-45.4406,-21.1894
430583,Coqueiro Baixo,RS,-52.097,-29.1816
270220,Coqueiro Seco,AL,-35.7994,-9.6371
430585,Coqueiros do Sul,RS,-52.7823,-28.1188
311880,Coração de Jesus,MG,-44.3577,-16.6888
290890,Coração de Maria,BA,-38.7485,-12.2505
410630,Corbélia,PR,-53.2962,-24.7951
330150,Cordeiro,RJ,-42.3607,-22.0288
290900,Cordeiros,BA,-41.9314,-15.0397
351240,Cordeirópolis,SP,-47.4551,-22.4768
420435,Cordilheira Alta,SC,-52.6024,-26.9851
311890,Cordisburgo,MG,-44.3203,-19.1258
311900,Cordislândia,MG,-45.69,-21.7975
230400,Coreaú,CE,-40.6547,-3.5522
250480,Coremas,PB,-37.9404,-7.0214
500310,Corguinho,MS,-54.8322,-19.8274
290910,Coribe,BA,-44.4573,-13.8285
311910,Corinto,MG,-44.4561,-18.3631
410640,Cornélio Procópio,PR,-50.6499,-23.1825
311920,Coroaci,MG,-42.2853,-18.6214
351250,Coroados,SP,-50.2854,-21.3555
210360,Coroatá,MA,-44.136,-4.1282
311930,Coromandel,MG,-47.2003,-18.4739
430587,Coronel Barros,RS,-54.0686,-28.3921
430590,Coronel Bicaco,RS,-53.7058,-27.7174
410645,Coronel Domingos Soares,PR,-52.0315,-26.224
240280,Coronel Ezequiel,RN,-36.2152,-6.3853
311940,Coronel Fabriciano,MG,-42.6283,-19.52
420440,Coronel Freitas,SC,-52.7028,-26.9059
220285,Coronel José Dias,PI,-42.5232,-8.814
240290,Coronel João Pessoa,RN,-34.882,-7.1216
290920,Coronel João Sá,BA,-37.9259,-10.2856
351260,Coronel Macedo,SP,-49.3132,-23.6304
420445,Coronel Martins,SC,-52.6682,-26.5125
311950,Coronel Murta,MG,-42.1817,-16.6181
311960,Coronel Pacheco,MG,-43.2616,-21.5879
430593,Coronel Pilar,RS,-51.6854,-29.2718
500315,Coronel Sapucaia,MS,-55.5288,-23.2719
410650,Coronel Vivida,PR,-52.5654,-25.9805
311970,Coronel Xavier Chaves,MG,-44.2232,-21.024
420455,Correia Pinto,SC,-50.3614,-27.5877
220290,Corrente,PI,-45.1633,-10.4372
260470,Correntes,PE,-36.3262,-9.1229
290930,Correntina,BA,-44.6345,-13.3442
260480,Cortês,PE,-35.5468,-8.4744
351270,Corumbataí,SP,-47.625,-22.2211
410655,Corumbataí do Sul,PR,-52.1177,-24.101
520590,Corumbaíba,GO,-48.566,-18.138
110007,Corumbiara,RO,-60.8947,-12.9551
500320,Corumbá,MS,-57.6495,-19.0064
520580,Corumbá de Goiás,GO,-48.8075,-15.9268
420450,Corupá,SC,-49.246,-26.4246
270230,Coruripe,AL,-36.1761,-10.125
351290,Cosmorama,SP,-49.7827,-20.4755
351280,Cosmópolis,SP,-47.1972,-22.6437
110008,Costa Marques,RO,-64.228,-12.4367
500325,Costa Rica,MS,-53.1287,-18.5432
290940,Cotegipe,BA,-44.2604,-12.0315
351300,Cotia,SP,-46.9189,-23.6039
430595,Cotiporã,RS,-51.6971,-28.9891
510337,Cotriguaçu,MT,-58.5659,-9.9035
170600,Couto Magalhães,TO,-49.1729,-8.5014
312010,Couto de Magalhães de Minas,MG,-43.4719,-18.073
430597,Coxilha,RS,-52.298,-28.1254
500330,Coxim,MS,-54.745,-18.5049
250485,Coxixola,PB,-36.606,-7.6273
230410,Crateús,CE,-40.6707,-5.1809
230420,Crato,CE,-39.4274,-7.2297
351310,Cravinhos,SP,-47.7294,-21.3403
290950,Cravolândia,BA,-39.8154,-13.3576
270235,Craíbas,AL,-36.7685,-9.6168
420460,Criciúma,SC,-49.3696,-28.679
430600,Crissiumal,RS,-54.1025,-27.4982
312020,Cristais,MG,-45.5186,-20.8758
351320,Cristais Paulista,SP,-47.4209,-20.4036
430605,Cristal,RS,-52.0492,-31.0017
430607,Cristal do Sul,RS,-53.2483,-27.4544
520620,Cristalina,GO,-47.6131,-16.7676
170610,Cristalândia,TO,-49.1942,-10.5985
220300,Cristalândia do Piauí,PI,-45.1864,-10.6495
312040,Cristiano Otoni,MG,-43.8056,-20.8322
520630,Cristianópolis,GO,-48.706,-17.2011
312050,Cristina,MG,-45.2642,-22.2122
220310,Cristino Castro,PI,-44.22,-8.8179
280170,Cristinápolis,SE,-37.756,-11.4755
312030,Cristália,MG,-42.8642,-16.7094
290970,Cristópolis,BA,-44.4161,-12.2349
312015,Crisólita,MG,-40.9092,-17.2389
290960,Crisópolis,BA,-38.1501,-11.5121
520640,Crixás,GO,-49.9695,-14.5425
170625,Crixás do Tocantins,TO,-48.9188,-11.1039
230423,Croatá,CE,-40.9037,-4.4148
520650,Cromínia,GO,-49.375,-17.2892
312060,Crucilândia,MG,-44.3413,-20.3975
230425,Cruz,CE,-40.176,-2.9181
430610,Cruz Alta,RS,-53.6048,-28.645
410680,Cruz Machado,PR,-51.3503,-26.0185
290980,Cruz das Almas,BA,-39.1054,-12.6723
250490,Cruz do Espírito Santo,PB,-35.0857,-7.139
430613,Cruzaltense,RS,-52.648,-27.6673
351340,Cruzeiro,SP,-44.9642,-22.5784
312070,Cruzeiro da Fortaleza,MG,-46.6739,-18.9467
410657,Cruzeiro do Iguaçu,PR,-53.1299,-25.6142
410660,Cruzeiro do Oeste,PR,-53.0709,-23.784
120020,Cruzeiro do Sul,AC,-44.9642,-22.5784
410670,Cruzeiro do Sul,PR,-72.6704,-7.6308
430620,Cruzeiro do Sul,RS,-72.6704,-7.6308
240300,Cruzeta,RN,-36.7888,-6.4083
410685,Cruzmaltina,PR,-51.4436,-23.9931
351330,Cruzália,SP,-50.7911,-22.7434
312080,Cruzília,MG,-44.8081,-21.8383
250500,Cubati,PB,-36.3526,-6.8648
351350,Cubatão,SP,-46.4242,-23.8858
510340,Cuiabá,MT,-56.0991,-15.5987
250520,Cuitegi,PB,-35.5229,-6.8963
250510,Cuité,PB,-36.1479,-6.4855
250523,Cuité de Mamanguape,PB,-35.2502,-6.9129
110094,Cujubim,RO,-62.5876,-9.3596
520660,Cumari,GO,-48.1511,-18.2644
260490,Cumaru,PE,-35.6992,-8.0065
150276,Cumaru do Norte,PA,-50.7678,-7.8123
280190,Cumbe,SE,-37.1829,-10.3552
351360,Cunha,SP,-44.9567,-23.0775
420470,Cunha Porã,SC,-53.1749,-26.8933
420475,Cunhataí,SC,-53.0914,-26.9735
312083,Cuparaque,MG,-41.0986,-18.9697
260500,Cupira,PE,-35.9518,-8.6243
290990,Curaçá,BA,-39.9073,-8.9915
220320,Curimatá,PI,-44.3002,-10.0324
150277,Curionópolis,PA,-49.6059,-6.099
410690,Curitiba,PR,-49.2712,-25.4296
420480,Curitibanos,SC,-50.577,-27.2918
410700,Curiúva,PR,-50.4555,-24.0383
220323,Currais,PI,-44.4062,-9.0118
240310,Currais Novos,RN,-36.5173,-6.2627
220327,Curral Novo do Piauí,PI,-40.9007,-7.8317
250530,Curral Velho,PB,-38.1979,-7.5376
250527,Curral de Cima,PB,-35.2639,-6.7232
312087,Curral de Dentro,MG,-41.8569,-15.9333
150280,Curralinho,PA,-49.7952,-1.8118
220325,Curralinhos,PI,-42.8307,-5.6131
210370,Cururupu,MA,-44.873,-1.8243
150285,Curuá,PA,-55.1168,-1.8878
150290,Curuçá,PA,-47.8566,-0.7277
312090,Curvelo,MG,-44.4306,-18.7572
510343,Curvelândia,MT,-57.9152,-15.6097
260510,Custódia,PE,-37.6421,-8.0896
160021,Cutias,AP,-50.5204,0.9971
510250,Cáceres,MT,-57.6847,-16.0661
311510,Cássia,MG,-46.9265,-20.5797
351090,Cássia dos Coqueiros,SP,-47.1643,-21.2801
430430,Cândido Godói,RS,-54.7517,-27.9515
210260,Cândido Mendes,MA,-45.7273,-1.4531
351000,Cândido Mota,SP,-50.3892,-22.7435
351010,Cândido Rodrigues,SP,-48.6327,-21.3275
290670,Cândido Sales,BA,-41.2391,-15.5038
410440,Cândido de Abreu,PR,-51.3432,-24.5747
410530,Céu Azul,PR,-53.8494,-25.1485
290780,Cícero Dantas,BA,-38.3834,-10.5932
311980,Córrego Danta,MG,-45.9042,-19.8239
311995,Córrego Fundo,MG,-45.5558,-20.449
312000,Córrego Novo,MG,-42.3958,-19.8322
311990,Córrego do Bom Jesus,MG,-46.0197,-22.6306
520570,Córrego do Ouro,GO,-50.5512,-16.2961
311783,Cônego Marinho,MG,-44.4141,-15.2974
520670,Damianópolis,GO,-46.178,-14.5604
250535,Damião,PB,-35.9049,-6.6322
520680,Damolândia,GO,-49.3609,-16.2539
170650,Darcinópolis,TO,-47.7524,-6.7086
312100,Datas,MG,-43.6584,-18.4459
430630,David Canabarro,RS,-51.8473,-28.3879
520690,Davinópolis,GO,-47.5568,-18.1501
210375,Davinópolis,MA,-47.3942,-5.5266
312110,Delfim Moreira,MG,-45.2792,-22.5087
312120,Delfinópolis,MG,-46.8539,-20.3442
270240,Delmiro Gouveia,AL,-37.9987,-9.3853
312125,Delta,MG,-47.7711,-19.9769
220330,Demerval Lobão,PI,-42.6722,-5.3642
510345,Denise,MT,-57.048,-14.7253
500345,Deodápolis,MS,-54.1682,-22.2763
230426,Deputado Irapuan Pinheiro,CE,-39.257,-5.9148
430632,Derrubadas,RS,-53.8632,-27.2652
351370,Descalvado,SP,-47.6203,-21.909
420490,Descanso,SC,-53.5018,-26.8247
312130,Descoberto,MG,-42.9672,-21.4594
250540,Desterro,PB,-37.0881,-7.289
312140,Desterro de Entre Rios,MG,-44.3322,-20.66
312150,Desterro do Melo,MG,-43.5204,-21.1476
430635,Dezesseis de Novembro,RS,-55.048,-28.2249
351380,Diadema,SP,-46.6205,-23.6813
250560,Diamante,PB,-38.2647,-7.4262
410715,Diamante d`Oeste,PR,-54.104021,-24.944026
410710,Diamante do Norte,PR,-52.8589,-22.6565
410712,Diamante do Sul,PR,-52.6801,-25.0436
312160,Diamantina,MG,-43.6006,-18.2441
510350,Diamantino,MT,-56.4366,-14.4037
170700,Dianópolis,TO,-46.8198,-11.624
291005,Dias d`Ávila,BA,-4.69622,40.65435
430637,Dilermando de Aguiar,RS,-54.2079,-29.705
312170,Diogo de Vasconcelos,MG,-43.1985,-20.4869
312180,Dionísio,MG,-42.7769,-19.8419
420500,Dionísio Cerqueira,SC,-53.6346,-26.2605
520710,Diorama,GO,-51.2588,-16.236
351385,Dirce Reis,SP,-50.6063,-20.4664
220335,Dirceu Arcoverde,PI,-42.4348,-9.3394
280200,Divina Pastora,SE,-37.1483,-10.6783
312200,Divino,MG,-42.1475,-20.6151
312210,Divino das Laranjeiras,MG,-41.4792,-18.7775
320180,Divino de São Lourenço,ES,-41.6838,-20.6202
351390,Divinolândia,SP,-46.7361,-21.6637
312220,Divinolândia de Minas,MG,-42.6133,-18.8017
312190,Divinésia,MG,-43.0039,-20.9903
312230,Divinópolis,MG,-44.8912,-20.1435
520830,Divinópolis de Goiás,GO,-46.3951,-13.2906
170710,Divinópolis do Tocantins,TO,-49.2144,-9.8016
312235,Divisa Alegre,MG,-41.3443,-15.7208
312240,Divisa Nova,MG,-46.1927,-21.5127
312245,Divisópolis,MG,-41.0025,-15.723
351400,Dobrada,SP,-48.3939,-21.5181
351410,Dois Córregos,SP,-48.3848,-22.3695
430640,Dois Irmãos,RS,-51.0898,-29.5836
430642,Dois Irmãos das Missões,RS,-53.5331,-27.6599
500348,Dois Irmãos do Buriti,MS,-55.276,-20.6906
170720,Dois Irmãos do Tocantins,TO,-49.0666,-9.254
430645,Dois Lajeados,RS,-51.8396,-28.983
270250,Dois Riachos,AL,-37.0965,-9.3846
410720,Dois Vizinhos,PR,-53.0554,-25.7465
351420,Dolcinópolis,SP,-50.5133,-20.1231
510360,Dom Aquino,MT,-54.9223,-15.8099
291010,Dom Basílio,BA,-41.7716,-13.759
312247,Dom Bosco,MG,-46.2574,-16.6528
312250,Dom Cavati,MG,-42.1067,-19.3742
150293,Dom Eliseu,PA,-47.5559,-4.2928
220340,Dom Expedito Lopes,PI,-41.6396,-6.9533
430650,Dom Feliciano,RS,-52.1081,-30.7021
220345,Dom Inocêncio,PI,-41.9697,-9.0052
312260,Dom Joaquim,MG,-43.2555,-18.9673
291020,Dom Macedo Costa,BA,-39.1891,-12.9091
430660,Dom Pedrito,RS,-54.6746,-30.9838
210380,Dom Pedro,MA,-44.4379,-5.039
430655,Dom Pedro de Alcântara,RS,-49.849,-29.3701
312270,Dom Silvério,MG,-42.9667,-20.1631
312280,Dom Viçoso,MG,-45.1603,-22.2534
320190,Domingos Martins,ES,-40.6586,-20.3646
220342,Domingos Mourão,PI,-41.2683,-4.2495
420510,Dona Emma,SC,-49.7265,-26.9849
312290,Dona Eusébia,MG,-42.8106,-21.3167
430670,Dona Francisca,RS,-53.356,-29.6227
250570,Dona Inês,PB,-35.6271,-6.6032
312300,Dores de Campos,MG,-44.0225,-21.1072
312310,Dores de Guanhães,MG,-42.9264,-19.0586
312320,Dores do Indaiá,MG,-45.6017,-19.4636
320200,Dores do Rio Preto,ES,-41.8482,-20.6893
312330,Dores do Turvo,MG,-43.1889,-20.9753
312340,Doresópolis,MG,-45.9031,-20.2872
260515,Dormentes,PE,-40.7662,-8.4412
500350,Douradina,MS,-54.6118,-22.0403
410725,Douradina,PR,-54.6118,-22.0403
351430,Dourado,SP,-48.3151,-22.1125
312350,Douradoquara,MG,-47.6083,-18.4311
500370,Dourados,MS,-54.8122,-22.2206
410730,Doutor Camargo,PR,-52.2186,-23.5576
430673,Doutor Maurício Cardoso,RS,-54.3628,-27.5105
420515,Doutor Pedrinho,SC,-49.4827,-26.7164
430675,Doutor Ricardo,RS,-51.9972,-29.084
240320,Doutor Severiano,RN,-38.3748,-6.0948
412863,Doutor Ulysses,PR,-49.4201,-24.5673
520725,Doverlândia,GO,-52.3138,-16.7211
351440,Dracena,SP,-51.535,-21.4843
351450,Duartina,SP,-49.4084,-22.4146
330160,Duas Barras,RJ,-42.5195,-22.0523
250580,Duas Estradas,PB,-35.4158,-6.6855
170730,Dueré,TO,-49.2716,-11.3416
351460,Dumont,SP,-47.9748,-21.2391
210390,Duque Bacelar,MA,-42.9451,-4.1512
330170,Duque de Caxias,RJ,-43.3099,-22.7896
312352,Durandé,MG,-41.7981,-20.2036
291000,Dário Meira,BA,-39.9029,-14.4332
351470,Echaporã,SP,-50.2038,-22.4326
320210,Ecoporanga,ES,-40.836,-18.3702
520735,Edealina,GO,-49.6644,-17.4239
520740,Edéia,GO,-49.9292,-17.3407
130140,Eirunepé,AM,-69.8662,-6.6568
500375,Eldorado,MS,-48.1093,-24.5226
351480,Eldorado,SP,-48.1093,-24.5226
150295,Eldorado do Carajás,PA,-49.3033,-6.1059
430676,Eldorado do Sul,RS,-51.3092,-29.9985
220350,Elesbão Veloso,PI,-42.1383,-6.2039
351490,Elias Fausto,SP,-47.3718,-23.0417
220360,Eliseu Martins,PI,-43.661,-8.097
351492,Elisiário,SP,-49.1111,-21.1673
291030,Elísio Medrado,BA,-39.5204,-12.947
312360,Elói Mendes,MG,-45.5947,-21.6007
250590,Emas,PB,-37.7156,-7.1071
351495,Embaúba,SP,-48.8375,-20.982
351500,Embu das Artes,SP,-46.8528,-23.6495
351510,Embu-Guaçu,SP,-46.8156,-23.8318
351512,Emilianópolis,SP,-51.4832,-21.8314
430680,Encantado,RS,-51.8762,-29.2398
240330,Encanto,RN,-38.3033,-6.1069
291040,Encruzilhada,BA,-40.9072,-15.5322
430690,Encruzilhada do Sul,RS,-52.5224,-30.5433
410750,Engenheiro Beltrão,PR,-52.2593,-23.7996
312370,Engenheiro Caldas,MG,-42.0469,-19.2014
351515,Engenheiro Coelho,SP,-47.2119,-22.4897
312380,Engenheiro Navarro,MG,-43.9497,-17.2831
330180,Engenheiro Paulo de Frontin,RJ,-43.6783,-22.5505
430692,Engenho Velho,RS,-52.9126,-27.7115
312385,Entre Folhas,MG,-42.2321,-19.6259
291050,Entre Rios,BA,-38.0837,-11.9424
420517,Entre Rios,SC,-38.0837,-11.9424
312390,Entre Rios de Minas,MG,-44.0656,-20.6708
410753,Entre Rios do Oeste,PR,-54.2448,-24.7002
430695,Entre Rios do Sul,RS,-52.7347,-27.5298
430693,Entre-Ijuís,RS,-54.2686,-28.3686
130150,Envira,AM,-70.0281,-7.4379
410740,Enéas Marques,PR,-53.1638,-25.9436
120025,Epitaciolândia,AC,-68.7412,-11.0289
240340,Equador,RN,-36.7177,-6.9444
430697,Erebango,RS,-52.3027,-27.8547
430700,Erechim,RS,-52.2737,-27.635
230427,Ererê,CE,-38.3484,-6.0311
420519,Ermo,SC,-49.6429,-28.9861
430705,Ernestina,RS,-52.5702,-28.4984
430720,Erval Grande,RS,-52.5708,-27.391
430730,Erval Seco,RS,-53.5069,-27.5511
420520,Erval Velho,SC,-51.443,-27.2743
312400,Ervália,MG,-42.6534,-20.84
260520,Escada,PE,-35.2233,-8.3594
430740,Esmeralda,RS,-51.1922,-28.0544
312410,Esmeraldas,MG,-44.3146,-19.7613
312420,Espera Feliz,MG,-41.9081,-20.6494
220370,Esperantina,PI,-42.2324,-3.8886
170740,Esperantina,TO,-42.2324,-3.8886
210400,Esperantinópolis,MA,-44.6926,-4.8794
250600,Esperança,PB,-35.8522,-7.0185
410752,Esperança Nova,PR,-53.8105,-23.7246
430745,Esperança do Sul,RS,-53.991,-27.3617
410754,Espigão Alto do Iguaçu,PR,-52.8376,-25.4224
110009,Espigão d`Oeste,RO,11.76111,44.94722
312430,Espinosa,MG,-42.8093,-14.9232
291060,Esplanada,BA,-37.9422,-11.7965
430750,Espumoso,RS,-52.8454,-28.7257
240350,Espírito Santo,RN,-35.3097,-6.3318
312440,Espírito Santo do Dourado,MG,-45.9508,-22.0467
351518,Espírito Santo do Pinhal,SP,-46.7724,-22.1715
351519,Espírito Santo do Turvo,SP,-49.4295,-22.694
430755,Estação,RS,-52.2636,-27.9135
430770,Esteio,RS,-51.1841,-29.852
312450,Estiva,MG,-46.0172,-22.4628
355730,Estiva Gerbi,SP,-46.9525,-22.2755
210405,Estreito,MA,-47.4432,-6.5583
430780,Estrela,RS,-51.9622,-29.5011
312460,Estrela Dalva,MG,-42.4608,-21.7417
430781,Estrela Velha,RS,-53.1596,-29.1775
351520,Estrela d`Oeste,SP,-50.400233,-20.286847
270255,Estrela de Alagoas,AL,-36.7617,-9.3889
312470,Estrela do Indaiá,MG,-45.7875,-19.5225
520750,Estrela do Norte,GO,-51.6632,-22.4859
351530,Estrela do Norte,SP,-51.9622,-29.5011
312480,Estrela do Sul,MG,-47.6901,-18.742
280210,Estância,SE,-37.4378,-11.2682
430760,Estância Velha,RS,-51.1843,-29.6535
291070,Euclides da Cunha,BA,-39.0127,-10.5059
351535,Euclides da Cunha Paulista,SP,-39.0127,-10.5059
312490,Eugenópolis,MG,-42.1851,-21.0968
430783,Eugênio de Castro,RS,-54.1475,-28.5286
291072,Eunápolis,BA,-39.5757,-16.3722
230428,Eusébio,CE,-38.4559,-3.8925
312500,Ewbank da Câmara,MG,-43.5097,-21.5514
312510,Extrema,MG,-46.3163,-22.8489
240360,Extremoz,RN,-35.3048,-5.7014
260530,Exu,PE,-39.722,-7.5154
250610,Fagundes,PB,-35.784,-7.3577
430786,Fagundes Varela,RS,-51.6988,-28.8808
520753,Faina,GO,-50.3636,-15.4454
312520,Fama,MG,-45.8322,-21.4089
312530,Faria Lemos,MG,-42.0127,-20.8051
230430,Farias Brito,CE,-39.5714,-6.9273
150300,Faro,PA,-56.7461,-2.1737
410755,Farol,PR,-52.6232,-24.0935
430790,Farroupilha,RS,-51.3405,-29.2249
351540,Fartura,SP,-49.5105,-23.3904
220375,Fartura do Piauí,PI,-42.7912,-9.4834
410760,Faxinal,PR,-51.3223,-24.0011
430800,Faxinal do Soturno,RS,-53.4458,-29.5772
420530,Faxinal dos Guedes,SC,-52.2604,-26.8535
430805,Faxinalzinho,RS,-52.6739,-27.4241
520760,Fazenda Nova,GO,-50.7796,-16.1856
410765,Fazenda Rio Grande,PR,-52.0991,-32.0334
430807,Fazenda Vilanova,RS,-51.8217,-29.5885
120030,Feijó,AC,-70.354,-8.1649
270260,Feira Grande,AL,-36.6793,-9.8944
260540,Feira Nova,PE,-35.3801,-7.947
280220,Feira Nova,SE,-35.3801,-7.947
210407,Feira Nova do Maranhão,MA,-46.6786,-6.9651
291077,Feira da Mata,BA,-44.2804,-14.2092
291080,Feira de Santana,BA,-38.9598,-12.2579
240370,Felipe Guerra,RN,-37.6962,-5.598
312560,Felisburgo,MG,-40.7606,-16.6389
312570,Felixlândia,MG,-44.8989,-18.7578
430810,Feliz,RS,-51.3077,-29.4509
270270,Feliz Deserto,AL,-36.3029,-10.2925
510370,Feliz Natal,MT,-54.939,-12.3802
312540,Felício dos Santos,MG,-43.2467,-18.0761
410773,Fernandes Pinheiro,PR,-50.549,-25.4148
312580,Fernandes Tourinho,MG,-42.0831,-19.1528
210408,Fernando Falcão,MA,-45.3281,-6.3529
240375,Fernando Pedroza,RN,-36.5317,-5.6973
351560,Fernando Prestes,SP,-48.6874,-21.2661
260545,Fernando de Noronha,PE,-32.4248,-3.8561
351550,Fernandópolis,SP,-50.2501,-20.2826
351565,Fernão,SP,-49.521,-22.3595
351570,Ferraz de Vasconcelos,SP,-46.371,-23.5411
160023,Ferreira Gomes,AP,-51.18,0.858
260550,Ferreiros,PE,-35.2426,-7.4497
312590,Ferros,MG,-43.0195,-19.235
312595,Fervedouro,MG,-42.2783,-20.7294
410775,Figueira,PR,-50.406,-23.8481
500390,Figueirão,MS,-53.638,-18.6782
170765,Figueirópolis,TO,-49.1737,-12.1348
510380,Figueirópolis d`Oeste,MT,-49.1737,-12.1348
291085,Filadélfia,BA,-40.1304,-10.7419
170770,Filadélfia,TO,-40.1304,-10.7419
291090,Firmino Alves,BA,-39.9242,-14.9871
520780,Firminópolis,GO,-50.3011,-16.5753
270280,Flexeiras,AL,-35.7139,-9.2728
410785,Flor da Serra do Sul,PR,-53.3084,-26.259
420535,Flor do Sertão,SC,-53.3479,-26.7785
351580,Flora Rica,SP,-51.3805,-21.676
410780,Floraí,PR,-52.3009,-23.3205
351590,Floreal,SP,-50.1456,-20.6767
260560,Flores,PE,-37.9743,-7.862
430820,Flores da Cunha,RS,-51.1833,-29.0301
520790,Flores de Goiás,GO,-47.0395,-14.458
220380,Flores do Piauí,PI,-42.9247,-7.7941
410790,Floresta,PR,-38.5707,-8.5999
260570,Floresta,PE,-38.5707,-8.5999
291100,Floresta Azul,BA,-39.6562,-14.8592
150304,Floresta do Araguaia,PA,-49.7033,-7.5597
220385,Floresta do Piauí,PI,-41.7995,-7.4667
312600,Florestal,MG,-44.4329,-19.8876
410800,Florestópolis,PR,-51.3905,-22.8664
220390,Floriano,PI,-43.0246,-6.7715
430825,Floriano Peixoto,RS,-52.0856,-27.8603
420540,Florianópolis,SC,-48.5496,-27.5973
240380,Florânia,RN,-36.8103,-6.1235
351610,Florínia,SP,-50.6898,-22.8722
410810,Flórida,PR,-51.9541,-23.0861
351600,Flórida Paulista,SP,-51.1706,-21.615
130160,Fonte Boa,AM,-66.0948,-2.5147
430830,Fontoura Xavier,RS,-52.3445,-28.9817
312610,Formiga,MG,-45.4267,-20.4648
430840,Formigueiro,RS,-53.503,-29.9982
520800,Formosa,GO,-47.3301,-15.5492
210409,Formosa da Serra Negra,MA,-46.191,-6.4427
410820,Formosa do Oeste,PR,-53.3128,-24.2967
291110,Formosa do Rio Preto,BA,-45.1904,-11.0415
420543,Formosa do Sul,SC,-52.7935,-26.6478
520810,Formoso,GO,-46.2342,-14.9513
312620,Formoso,MG,-46.2342,-14.9513
170820,Formoso do Araguaia,TO,-49.5257,-11.806
430843,Forquetinha,RS,-52.1008,-29.3819
230435,Forquilha,CE,-40.2634,-3.7994
420545,Forquilhinha,SC,-49.4785,-28.7454
230440,Fortaleza,CE,-38.5218,-3.7305
312630,Fortaleza de Minas,MG,-46.7122,-20.8492
170825,Fortaleza do Tabocão,TO,-48.5206,-9.0561
210410,Fortaleza dos Nogueiras,MA,-46.1706,-6.9629
430845,Fortaleza dos Valos,RS,-53.2249,-28.7986
230445,Fortim,CE,-37.7981,-4.4513
210420,Fortuna,MA,-44.1543,-5.7331
312640,Fortuna de Minas,MG,-44.4467,-19.5608
410830,Foz do Iguaçu,PR,-54.5763,-25.5209
410845,Foz do Jordão,PR,-52.1209,-25.7377
420550,Fraiburgo,SC,-50.92,-27.0233
351620,Franca,SP,-47.401,-20.5382
220400,Francinópolis,PI,-42.2638,-6.3959
410832,Francisco Alves,PR,-53.8443,-24.0694
220410,Francisco Ayres,PI,-42.6946,-6.6222
312650,Francisco Badaró,MG,-42.3509,-16.9918
410840,Francisco Beltrão,PR,-53.0534,-26.0791
240390,Francisco Dantas,RN,-38.1212,-6.0723
312660,Francisco Dumont,MG,-44.2322,-17.312
220415,Francisco Macedo,PI,-40.7914,-7.3293
351630,Francisco Morato,SP,-46.7453,-23.2817
220420,Francisco Santos,PI,-41.1351,-6.9946
312670,Francisco Sá,MG,-43.4943,-16.4777
312675,Franciscópolis,MG,-42.0081,-17.9595
351640,Franco da Rocha,SP,-46.7244,-23.3328
230450,Frecheirinha,CE,-40.818,-3.7556
430850,Frederico Westphalen,RS,-53.3963,-27.3573
312680,Frei Gaspar,MG,-41.4294,-18.0656
312690,Frei Inocêncio,MG,-41.9065,-18.5632
312695,Frei Lagonegro,MG,-42.7658,-18.1675
250620,Frei Martinho,PB,-36.4535,-6.4034
260580,Frei Miguelinho,PE,-35.9113,-7.9392
280230,Frei Paulo,SE,-37.5356,-10.55
420555,Frei Rogério,SC,-50.8076,-27.175
312700,Fronteira,MG,-49.2028,-20.2861
312705,Fronteira dos Vales,MG,-40.9244,-16.8914
220430,Fronteiras,PI,-40.6157,-7.0881
312707,Fruta de Leite,MG,-42.5278,-16.1169
312710,Frutal,MG,-48.9406,-20.0247
240400,Frutuoso Gomes,RN,-37.8375,-6.1567
320220,Fundão,ES,-40.4051,-19.9332
312720,Funilândia,MG,-44.0569,-19.3669
291075,Fátima,BA,-48.9031,-10.7576
170755,Fátima,TO,-48.9031,-10.7576
500380,Fátima do Sul,MS,-54.5131,-22.3789
410770,Fênix,PR,-51.9784,-23.9153
351650,Gabriel Monteiro,SP,-50.5533,-21.5299
250625,Gado Bravo,PB,-35.7914,-7.5831
312730,Galiléia,MG,-41.5384,-19.0009
240410,Galinhos,RN,-36.2745,-5.0924
420560,Galvão,SC,-52.687,-26.4554
260590,Gameleira,PE,-35.3846,-8.5798
520815,Gameleira de Goiás,GO,-48.6454,-16.4854
312733,Gameleiras,MG,-43.1236,-15.0828
291120,Gandu,BA,-39.4845,-13.7448
260600,Garanhuns,PE,-36.4931,-8.8906
280240,Gararu,SE,-37.0828,-9.9689
430860,Garibaldi,RS,-51.5269,-29.2562
420570,Garopaba,SC,-48.624,-28.0275
150307,Garrafão do Norte,PA,-47.0513,-1.9282
430865,Garruchos,RS,-55.6383,-28.1892
420580,Garuva,SC,-48.8545,-26.0295
351670,Garça,SP,-49.6549,-22.2126
420590,Gaspar,SC,-48.9567,-26.9307
351680,Gastão Vidigal,SP,-50.1905,-20.7953
430870,Gaurama,RS,-52.0927,-27.5879
291125,Gavião,BA,-39.7801,-11.4714
351685,Gavião Peixoto,SP,-48.4929,-21.8378
510385,Gaúcha do Norte,MT,-53.2544,-13.1814
220435,Geminiano,PI,-41.3628,-7.1586
510390,General Carneiro,MT,-51.4413,-26.4766
410850,General Carneiro,PR,-51.4413,-26.4766
430880,General Câmara,RS,-51.7612,-29.9032
280250,General Maynard,SE,-36.985,-10.688
351690,General Salgado,SP,-50.3608,-20.6488
230460,General Sampaio,CE,-39.454,-4.0435
430885,Gentil,RS,-52.0349,-28.4319
291130,Gentio do Ouro,BA,-42.5062,-11.4301
351700,Getulina,SP,-49.9287,-21.7996
430890,Getúlio Vargas,RS,-52.2257,-27.8878
220440,Gilbués,PI,-45.3352,-9.8316
270290,Girau do Ponciano,AL,-36.8316,-9.884
430900,Giruá,RS,-54.3519,-28.0277
312735,Glaucilândia,MG,-43.6972,-16.8497
351710,Glicério,SP,-50.2089,-21.3832
430905,Glorinha,RS,-50.7869,-29.8788
291140,Glória,BA,-38.2553,-9.3429
510395,Glória d`Oeste,MT,-58.3108,-15.768
500400,Glória de Dourados,MS,-54.2313,-22.4174
260610,Glória do Goitá,PE,-35.2944,-7.9991
210430,Godofredo Viana,MA,-45.7725,-1.4129
410855,Godoy Moreira,PR,-51.9233,-24.1925
312737,Goiabeira,MG,-41.2246,-18.9804
260620,Goiana,PE,-34.9959,-7.5606
520850,Goiandira,GO,-48.0866,-18.1357
240420,Goianinha,RN,-35.2092,-6.2664
520880,Goianira,GO,-49.4255,-16.5002
170830,Goianorte,TO,-48.9341,-8.772
312738,Goianá,MG,-34.9959,-7.5606
520840,Goianápolis,GO,-49.0213,-16.5071
520860,Goianésia,GO,-49.1162,-15.3118
150309,Goianésia do Pará,PA,-49.0978,-3.8381
170900,Goiatins,TO,-47.3155,-7.7132
520910,Goiatuba,GO,-49.3641,-18.0155
410860,Goioerê,PR,-53.025,-24.1852
410865,Goioxim,PR,-51.9924,-25.1987
520890,Goiás,GO,-50.1389,-15.9322
520870,Goiânia,GO,-49.2533,-16.6809
291150,Gongogi,BA,-39.4665,-14.324
312750,Gonzaga,MG,-42.4786,-18.8225
312740,Gonçalves,MG,-45.8558,-22.6589
210440,Gonçalves Dias,MA,-44.2981,-5.1602
312760,Gouveia,MG,-43.7417,-18.4547
520915,Gouvelândia,GO,-50.1365,-18.4426
210450,Governador Archer,MA,-44.271,-5.0236
420600,Governador Celso Ramos,SC,-48.5576,-27.3172
240430,Governador Dix-Sept Rosado,RN,-37.5209,-5.4577
210455,Governador Edison Lobão,MA,-47.3646,-5.7497
210460,Governador Eugênio Barros,MA,-44.2441,-5.32
110100,Governador Jorge Teixeira,RO,-62.7326,-10.614
320225,Governador Lindenberg,ES,-40.4629,-19.2508
210462,Governador Luiz Rocha,MA,-44.0774,-5.4784
291160,Governador Mangabeira,BA,-39.0372,-12.6039
210465,Governador Newton Bello,MA,-45.6714,-3.4286
210467,Governador Nunes Freire,MA,-45.89,-2.1304
312770,Governador Valadares,MG,-41.9459,-18.8539
280260,Gracho Cardoso,SE,-37.1971,-10.2283
210480,Grajaú,MA,-46.1361,-5.8154
430910,Gramado,RS,-50.8725,-29.3787
430915,Gramado Xavier,RS,-52.5786,-29.2703
430912,Gramado dos Loureiros,RS,-52.9184,-27.444
410870,Grandes Rios,PR,-51.5064,-24.1455
260630,Granito,PE,-39.6165,-7.7146
230470,Granja,CE,-40.8279,-3.1208
230480,Granjeiro,CE,-39.2166,-6.8882
420620,Gravatal,SC,-49.0427,-28.3208
430920,Gravataí,RS,-50.9925,-29.9413
260640,Gravatá,PE,-35.5631,-8.1993
230465,Graça,CE,-40.7509,-4.0459
210470,Graça Aranha,MA,-44.3358,-5.4055
230490,Groaíras,CE,-40.3846,-3.9152
240440,Grossos,RN,-37.1511,-4.9843
312790,Grupiara,MG,-47.7225,-18.4928
312780,Grão Mogol,MG,-42.8933,-16.5661
420610,Grão Pará,SC,-49.2164,-28.1857
430925,Guabiju,RS,-51.6911,-28.5417
420630,Guabiruba,SC,-48.9781,-27.0864
220450,Guadalupe,PI,-43.5703,-6.788
351730,Guaimbê,SP,-49.8986,-21.9091
410890,Guairaçá,PR,-52.6863,-22.9345
351720,Guaiçara,SP,-49.8013,-21.6195
230495,Guaiúba,CE,-38.634,-4.0434
130165,Guajará,AM,-72.5833,-7.5456
110010,Guajará-Mirim,RO,-65.3328,-10.7804
291165,Guajeru,BA,-41.9381,-14.5467
240450,Guamaré,RN,-36.3197,-5.1075
410895,Guamiranga,PR,-50.8114,-25.1895
291170,Guanambi,BA,-42.7799,-14.2231
312800,Guanhães,MG,-42.933,-18.775
351760,Guapiara,SP,-48.5295,-24.1892
351750,Guapiaçu,SP,-49.2254,-20.7966
330185,Guapimirim,RJ,-42.9791,-22.5266
410900,Guapirama,PR,-50.0432,-23.5165
410910,Guaporema,PR,-52.7786,-23.3402
430940,Guaporé,RS,-51.8908,-28.8475
312810,Guapé,MG,-45.9175,-20.7619
520920,Guapó,GO,-49.5344,-16.8309
250630,Guarabira,PB,-35.4917,-6.8514
410920,Guaraci,PR,-48.9452,-20.4977
351790,Guaraci,SP,-48.9452,-20.4977
312820,Guaraciaba,MG,-53.5186,-26.6001
420640,Guaraciaba,SC,-53.5186,-26.6001
230500,Guaraciaba do Norte,CE,-40.7509,-4.1643
312825,Guaraciama,MG,-43.6717,-17.0144
230510,Guaramiranga,CE,-38.9339,-4.2615
420650,Guaramirim,SC,-49.0026,-26.4688
312840,Guarani,MG,-43.0481,-21.3588
351800,Guarani d`Oeste,SP,-50.338044,-20.073538
430950,Guarani das Missões,RS,-54.5629,-28.1491
520940,Guarani de Goiás,GO,-46.4782,-13.9394
410930,Guaraniaçu,PR,-52.8678,-25.1003
351810,Guarantã,SP,-49.5901,-21.8951
510410,Guarantã do Norte,MT,-54.9098,-9.9518
312830,Guaranésia,MG,-46.7957,-21.3025
320240,Guarapari,ES,-40.4985,-20.6719
410940,Guarapuava,PR,-51.4622,-25.3951
410950,Guaraqueçaba,PR,-48.329,-25.2984
351820,Guararapes,SP,-50.646,-21.2533
351830,Guararema,SP,-46.037,-23.4142
312850,Guarará,MG,-43.0378,-21.7319
291180,Guaratinga,BA,-39.7808,-16.5802
351840,Guaratinguetá,SP,-45.1909,-22.8058
410960,Guaratuba,PR,-48.5751,-25.8806
351780,Guaraçaí,SP,-51.2099,-21.0338
170930,Guaraí,TO,-48.5114,-8.8354
520929,Guaraíta,GO,-50.0289,-15.6318
312860,Guarda-Mor,MG,-47.0992,-17.7698
351850,Guareí,SP,-48.1837,-23.3714
351860,Guariba,SP,-48.2316,-21.3594
220455,Guaribas,PI,-43.6943,-9.3865
520945,Guarinos,GO,-49.7014,-14.7324
351870,Guarujá,SP,-46.2558,-23.9928
420660,Guarujá do Sul,SC,-53.5278,-26.385
351880,Guarulhos,SP,-46.5245,-23.4431
351770,Guará,SP,-47.825,-20.429
420665,Guatambú,SC,-52.7894,-27.1105
351885,Guatapará,SP,-48.0361,-21.4961
312870,Guaxupé,MG,-46.7191,-21.3088
320230,Guaçuí,ES,-41.6751,-20.7727
430930,Guaíba,RS,-51.3154,-30.1097
410880,Guaíra,PR,-48.3149,-20.3246
351740,Guaíra,SP,-48.3149,-20.3246
500410,Guia Lopes da Laguna,MS,-56.1117,-21.4583
312880,Guidoval,MG,-42.7997,-21.1514
312890,Guimarânia,MG,-46.7925,-18.8442
210490,Guimarães,MA,-44.602,-2.1276
510420,Guiratinga,MT,-53.7575,-16.346
312900,Guiricema,MG,-42.719,-21.0085
312910,Gurinhatã,MG,-49.7869,-19.2142
250640,Gurinhém,PB,-35.4247,-7.1243
250650,Gurjão,PB,-36.4868,-7.2474
170950,Gurupi,TO,-49.068,-11.7279
150310,Gurupá,PA,-51.6338,-1.4141
351890,Guzolândia,SP,-50.6623,-20.6492
351660,Gália,SP,-49.5516,-22.2937
430955,Harmonia,RS,-51.4223,-29.55
520960,Heitoraí,GO,-49.8268,-15.719
312920,Heliodora,MG,-45.5422,-22.0675
291185,Heliópolis,BA,-38.2815,-10.6753
351900,Herculândia,SP,-50.3866,-22.0068
430710,Herval,RS,-53.3951,-32.0261
420670,Herval d`Oeste,SC,-53.3951,-32.0261
430957,Herveiras,RS,-52.6529,-29.4545
520980,Hidrolina,GO,-49.4694,-14.7222
230520,Hidrolândia,CE,-40.4056,-4.4096
520970,Hidrolândia,GO,-40.4056,-4.4096
351905,Holambra,SP,-47.0545,-22.6332
410965,Honório Serpa,PR,-52.3838,-26.1431
230523,Horizonte,CE,-38.4966,-4.0965
430960,Horizontina,RS,-54.309,-27.6279
351907,Hortolândia,SP,-47.22,-22.8583
220460,Hugo Napoleão,PI,-42.5574,-5.989
430965,Hulha Negra,RS,-53.87,-31.4075
130170,Humaitá,AM,-53.972,-27.5661
430970,Humaitá,RS,-53.972,-27.5661
210500,Humberto de Campos,MA,-43.4649,-2.5983
351910,Iacanga,SP,-49.0226,-21.8928
520990,Iaciara,GO,-46.6343,-14.1015
351920,Iacri,SP,-50.6893,-21.859
312930,Iapu,MG,-42.2172,-19.4364
351925,Iaras,SP,-49.1594,-22.8743
260650,Iati,PE,-36.8498,-9.0456
291190,Iaçu,BA,-40.2106,-12.7672
410970,Ibaiti,PR,-50.1906,-23.8453
430975,Ibarama,RS,-53.1311,-29.4212
230526,Ibaretama,CE,-38.6657,-4.7504
270300,Ibateguara,AL,-35.9373,-8.9782
320245,Ibatiba,ES,-41.5083,-20.2343
351930,Ibaté,SP,-47.999,-21.9554
410975,Ibema,PR,-53.0072,-25.1193
312940,Ibertioga,MG,-43.9661,-21.4311
420675,Ibiam,SC,-51.2352,-27.1847
230530,Ibiapina,CE,-40.8911,-3.924
250660,Ibiara,PB,-38.4035,-7.4998
291200,Ibiassucê,BA,-42.2576,-14.2714
430980,Ibiaçá,RS,-51.8599,-28.0566
312960,Ibiaí,MG,-44.9139,-16.8611
291210,Ibicaraí,BA,-39.5891,-14.8625
420680,Ibicaré,SC,-51.3681,-27.0881
291220,Ibicoara,BA,-41.2851,-13.4131
230533,Ibicuitinga,CE,-38.6366,-4.9767
291230,Ibicuí,BA,-39.9879,-14.845
260660,Ibimirim,PE,-37.6941,-8.5379
291240,Ibipeba,BA,-42.0113,-11.6425
291250,Ibipitanga,BA,-42.4856,-12.8804
410980,Ibiporã,PR,-51.0522,-23.2659
291260,Ibiquera,BA,-40.9322,-12.6487
312965,Ibiracatu,MG,-44.1651,-15.6666
312970,Ibiraci,MG,-47.1222,-20.4619
430990,Ibiraiaras,RS,-51.6367,-28.3706
260670,Ibirajuba,PE,-36.1812,-8.5763
420690,Ibirama,SC,-49.5173,-27.0543
291270,Ibirapitanga,BA,-39.3715,-14.1618
430995,Ibirapuitã,RS,-52.5171,-28.6227
291280,Ibirapuã,BA,-40.1097,-17.6873
351950,Ibirarema,SP,-50.0738,-22.8138
291290,Ibirataia,BA,-39.6394,-14.0689
320250,Ibiraçu,ES,-40.3687,-19.8309
312980,Ibirité,MG,-44.0589,-20.0217
431000,Ibirubá,RS,-53.0961,-28.6302
351940,Ibirá,SP,-49.2448,-21.083
291300,Ibitiara,BA,-42.2172,-12.6494
351960,Ibitinga,SP,-48.8319,-21.7562
320255,Ibitirama,ES,-41.6647,-20.5394
291310,Ibititá,BA,-41.9782,-11.5461
312990,Ibitiúra de Minas,MG,-46.4397,-22.0608
313000,Ibituruna,MG,-44.7475,-21.1522
312950,Ibiá,MG,-46.5387,-19.4772
351970,Ibiúna,SP,-47.221,-23.6548
291320,Ibotirama,BA,-43.2181,-12.183
230535,Icapuí,CE,-37.3535,-4.7158
313005,Icaraí de Minas,MG,-44.9023,-16.2177
410990,Icaraíma,PR,-53.6162,-23.3948
210510,Icatu,MA,-44.0501,-2.7721
291330,Ichu,BA,-39.1907,-11.7456
320260,Iconha,ES,-40.8109,-20.7935
351980,Icém,SP,-49.1915,-20.3391
230540,Icó,CE,-38.8576,-6.4004
240460,Ielmo Marinho,RN,-35.552,-5.8228
351990,Iepê,SP,-51.0779,-22.6602
270310,Igaci,AL,-36.6372,-9.5377
291340,Igaporã,BA,-42.7168,-13.7725
250260,Igaracy,PB,-38.1487,-7.182
352010,Igarapava,SP,-47.7477,-20.0411
313010,Igarapé,MG,-44.3017,-20.0706
210520,Igarapé Grande,MA,-44.8558,-4.6625
210515,Igarapé do Meio,MA,-45.1873,-3.6398
150320,Igarapé-Açu,PA,-47.626,-1.1254
150330,Igarapé-Miri,PA,-48.9575,-1.9753
260680,Igarassu,PE,-34.9061,-7.8354
313020,Igaratinga,MG,-44.7089,-19.9553
352020,Igaratá,SP,-46.1569,-23.2063
352000,Igaraçu do Tietê,SP,-48.5597,-22.509
291345,Igrapiúna,BA,-39.1423,-13.8219
270320,Igreja Nova,AL,-36.6582,-10.1267
431010,Igrejinha,RS,-50.7919,-29.5693
330187,Iguaba Grande,RJ,-42.2287,-22.8387
352030,Iguape,SP,-47.5564,-24.7043
260690,Iguaracy,PE,-37.4082,-7.8418
411000,Iguaraçu,PR,-51.8256,-23.1949
313030,Iguatama,MG,-45.7111,-20.1744
500430,Iguatemi,MS,-54.5637,-23.6736
230550,Iguatu,CE,-39.2972,-6.3619
411005,Iguatu,PR,-39.2972,-6.3619
291350,Iguaí,BA,-40.0894,-14.7528
313040,Ijaci,MG,-44.9253,-21.1703
431020,Ijuí,RS,-53.92,-28.388
352042,Ilha Comprida,SP,-47.5526,-24.7445
220465,Ilha Grande,PI,-41.8186,-2.8577
352044,Ilha Solteira,SP,-51.3411,-20.4281
280270,Ilha das Flores,SE,-36.537,-10.4366
260760,Ilha de Itamaracá,PE,-34.8303,-7.7477
352040,Ilhabela,SP,-45.3581,-23.7781
420710,Ilhota,SC,-48.8285,-26.9023
291360,Ilhéus,BA,-39.046,-14.793
313050,Ilicínea,MG,-45.8264,-20.939
431030,Ilópolis,RS,-52.1258,-28.9282
250670,Imaculada,PB,-37.5117,-7.3872
420720,Imaruí,SC,-48.8232,-28.1962
411007,Imbaú,PR,-50.7557,-24.4476
420730,Imbituba,SC,-48.6659,-28.2284
411010,Imbituva,PR,-50.5989,-25.2285
420740,Imbuia,SC,-49.4218,-27.4908
431033,Imbé,RS,-50.1281,-29.9753
313055,Imbé de Minas,MG,-41.9694,-19.5989
431036,Imigrante,RS,-51.7748,-29.3508
210530,Imperatriz,MA,-47.4781,-5.5269
520993,Inaciolândia,GO,-49.9888,-18.4864
411030,Inajá,PR,-52.1976,-22.753
260700,Inajá,PE,-52.1976,-22.753
313060,Inconfidentes,MG,-46.3278,-22.3169
313065,Indaiabira,MG,-42.1981,-15.4914
420750,Indaial,SC,-49.2371,-26.9
352050,Indaiatuba,SP,-47.2181,-23.0903
230560,Independência,CE,-40.3103,-5.3972
431040,Independência,RS,-40.3103,-5.3972
352060,Indiana,SP,-51.2535,-22.1749
313070,Indianópolis,MG,-47.9176,-19.0396
411040,Indianópolis,PR,-47.9176,-19.0396
352070,Indiaporã,SP,-50.2906,-19.9802
520995,Indiara,GO,-49.9862,-17.1387
280280,Indiaroba,SE,-37.5075,-11.5251
510450,Indiavaí,MT,-58.5802,-15.4921
260710,Ingazeira,PE,-37.4576,-7.6691
313080,Ingaí,MG,-44.9172,-21.4008
250680,Ingá,PB,-35.611,-7.2905
431041,Inhacorá,RS,-54.0214,-27.8812
291370,Inhambupe,BA,-38.3597,-11.7922
150340,Inhangapi,PA,-47.9109,-1.4284
270330,Inhapi,AL,-37.7481,-9.2221
313090,Inhapim,MG,-42.121,-19.5502
313100,Inhaúma,MG,-44.3892,-19.4903
220470,Inhuma,PI,-41.7088,-6.6671
521000,Inhumas,GO,-49.5001,-16.3611
313110,Inimutaba,MG,-44.3624,-18.7302
500440,Inocência,MS,-51.9281,-19.7277
411020,Inácio Martins,PR,-51.0769,-25.5704
352080,Inúbia Paulista,SP,-50.9612,-21.7695
420757,Iomerê,SC,-51.2406,-27.002
313115,Ipaba,MG,-42.42,-19.4114
521010,Ipameri,GO,-48.1581,-17.7215
313120,Ipanema,MG,-41.7139,-19.8
240470,Ipanguaçu,RN,-36.8594,-5.5091
230565,Ipaporanga,CE,-40.7601,-4.9032
313130,Ipatinga,MG,-42.5271,-19.4778
230570,Ipaumirim,CE,-38.718,-6.7886
352090,Ipaussu,SP,-49.6284,-23.0553
291380,Ipecaetá,BA,-39.3064,-12.3158
352100,Iperó,SP,-47.6876,-23.3509
352110,Ipeúna,SP,-47.7151,-22.4355
313140,Ipiaçu,MG,-49.944,-18.6934
291390,Ipiaú,BA,-39.7373,-14.1318
352115,Ipiguá,SP,-49.3881,-20.6573
420760,Ipira,SC,-39.7417,-12.1578
411050,Ipiranga,PR,-50.5857,-25.023
521015,Ipiranga de Goiás,GO,-49.6695,-15.1689
510452,Ipiranga do Norte,MT,-56.1531,-12.2408
220480,Ipiranga do Piauí,PI,-41.7381,-6.8242
431046,Ipiranga do Sul,RS,-52.4252,-27.9368
291400,Ipirá,BA,-39.7417,-12.1578
130180,Ipixuna,AM,-71.6934,-7.0479
150345,Ipixuna do Pará,PA,-47.4965,-2.5592
260720,Ipojuca,PE,-35.0611,-8.3981
352120,Iporanga,SP,-48.594,-24.5843
521020,Iporá,GO,-51.1181,-16.4408
411060,Iporã,PR,-51.1181,-16.4408
420765,Iporã do Oeste,SC,-53.535,-26.9881
230580,Ipu,CE,-40.7095,-4.3233
420768,Ipuaçu,SC,-52.4556,-26.635
260730,Ipubi,PE,-40.1494,-7.6535
240480,Ipueira,RN,-37.1985,-6.8153
230590,Ipueiras,CE,-40.7168,-4.5427
170980,Ipueiras,TO,-40.7168,-4.5427
313150,Ipuiúna,MG,-46.1897,-22.0993
420770,Ipumirim,SC,-52.1357,-27.0762
291410,Ipupiara,BA,-42.6111,-11.8221
352130,Ipuã,SP,-48.0125,-20.4442
431043,Ipê,RS,-51.2806,-28.8184
230600,Iracema,CE,-38.3028,-5.8106
140028,Iracema,RR,-38.3028,-5.8106
411065,Iracema do Oeste,PR,-53.3539,-24.4279
420775,Iraceminha,SC,-53.2728,-26.8237
352140,Iracemápolis,SP,-47.523,-22.5832
291420,Irajuba,BA,-40.0842,-13.2525
291430,Iramaia,BA,-40.9576,-13.2937
130185,Iranduba,AM,-60.1867,-3.2758
420780,Irani,SC,-51.9011,-27.023
352160,Irapuru,SP,-51.3495,-21.5692
352150,Irapuã,SP,-49.4164,-21.2768
291440,Iraquara,BA,-41.6208,-12.2437
291450,Irará,BA,-38.7643,-12.0436
411070,Irati,PR,-50.6493,-25.4697
420785,Irati,SC,-50.6493,-25.4697
230610,Irauçuba,CE,-39.7842,-3.7476
431050,Iraí,RS,-53.2543,-27.1951
313160,Iraí de Minas,MG,-47.4642,-18.9865
291460,Irecê,BA,-41.8535,-11.3033
411080,Iretama,PR,-52.1024,-24.4213
420790,Irineópolis,SC,-50.7957,-26.242
150350,Irituia,PA,-47.4405,-1.7699
320265,Irupi,ES,-41.6397,-20.347
220490,Isaías Coelho,PI,-41.6771,-7.7356
521030,Israelândia,GO,-50.9044,-16.3165
431053,Itaara,RS,-53.7558,-29.6071
250690,Itabaiana,PB,-37.4271,-10.6856
280290,Itabaiana,SE,-37.4271,-10.6856
280300,Itabaianinha,SE,-37.7867,-11.276
291465,Itabela,BA,-39.562,-16.5743
291470,Itaberaba,BA,-40.3059,-12.5242
521040,Itaberaí,GO,-49.806,-16.0206
352170,Itaberá,SP,-49.1399,-23.8621
280310,Itabi,SE,-37.1018,-10.1263
313170,Itabira,MG,-43.2266,-19.6186
313180,Itabirinha,MG,-41.234,-18.5712
313190,Itabirito,MG,-43.8029,-20.252
330190,Itaboraí,RJ,-42.8557,-22.7496
291480,Itabuna,BA,-39.2781,-14.7876
171050,Itacajá,TO,-47.7726,-8.3929
313200,Itacambira,MG,-43.3131,-17.0672
313210,Itacarambi,MG,-44.0922,-15.1
291490,Itacaré,BA,-38.9951,-14.2781
130190,Itacoatiara,AM,-58.4439,-3.1429
260740,Itacuruba,PE,-38.6868,-8.7284
431055,Itacurubi,RS,-55.2361,-28.7962
291500,Itaeté,BA,-40.9725,-12.9864
291510,Itagi,BA,-40.0069,-14.1628
291520,Itagibá,BA,-39.8453,-14.2892
291530,Itagimirim,BA,-39.6148,-16.0853
411090,Itaguajé,PR,-51.9674,-22.6183
313220,Itaguara,MG,-44.4881,-20.3914
521056,Itaguari,GO,-49.6071,-15.918
521060,Itaguaru,GO,-49.6337,-15.7614
171070,Itaguatins,TO,-47.4815,-5.7697
320270,Itaguaçu,ES,-40.8565,-19.8015
291535,Itaguaçu da Bahia,BA,-42.3997,-11.0147
330200,Itaguaí,RJ,-43.7753,-22.863
220500,Itainópolis,PI,-41.4792,-7.4482
210535,Itaipava do Grajaú,MA,-45.7879,-5.1421
411095,Itaipulândia,PR,-54.2981,-25.1417
313230,Itaipé,MG,-41.6703,-17.4019
230625,Itaitinga,CE,-38.5298,-3.9658
150360,Itaituba,PA,-55.9878,-4.2625
230620,Itaiçaba,CE,-37.833,-4.6715
420810,Itaiópolis,SC,-49.9072,-26.3392
420820,Itajaí,SC,-48.667,-26.9118
352190,Itajobi,SP,-49.0629,-21.3123
352200,Itaju,SP,-48.8115,-21.9857
291540,Itaju do Colônia,BA,-39.7231,-15.1434
313240,Itajubá,MG,-45.4524,-22.4237
291550,Itajuípe,BA,-39.3792,-14.6746
521080,Itajá,GO,-36.8713,-5.6375
240485,Itajá,RN,-36.8713,-5.6375
330205,Italva,RJ,-41.6908,-21.4214
291560,Itamaraju,BA,-39.528,-17.0363
313250,Itamarandiba,MG,-42.8597,-17.8575
130195,Itamarati,AM,-68.2437,-6.4385
313260,Itamarati de Minas,MG,-42.8178,-21.4158
291570,Itamari,BA,-39.683,-13.7782
313270,Itambacuri,MG,-41.6752,-18.0392
411100,Itambaracá,PR,-50.4069,-23.0177
291580,Itambé,BA,-35.1097,-7.4109
411110,Itambé,PR,-35.1097,-7.4109
260765,Itambé,PE,-35.1097,-7.4109
313280,Itambé do Mato Dentro,MG,-43.3223,-19.4144
313290,Itamogi,MG,-47.0483,-21.0781
313300,Itamonte,MG,-44.8722,-22.2826
291590,Itanagra,BA,-38.0397,-12.259
313310,Itanhandu,MG,-44.9348,-22.2955
510454,Itanhangá,MT,-56.6463,-12.2259
352210,Itanhaém,SP,-46.7939,-24.1839
313320,Itanhomi,MG,-41.8642,-19.1711
291600,Itanhém,BA,-40.3291,-17.1666
313330,Itaobim,MG,-41.5022,-16.5617
330210,Itaocara,RJ,-42.0799,-21.6725
521090,Itapaci,GO,-49.5511,-14.9522
313340,Itapagipe,MG,-49.3667,-19.9034
230630,Itapajé,CE,-39.585,-3.6862
291610,Itaparica,BA,-38.6798,-12.8936
291630,Itapebi,BA,-39.5319,-15.9698
313350,Itapecerica,MG,-45.1256,-20.4728
352220,Itapecerica da Serra,SP,-46.8492,-23.7176
210540,Itapecuru Mirim,MA,-44.3561,-3.3974
411120,Itapejara d`Oeste,PR,-88.6675,33.7968
420830,Itapema,SC,-48.6143,-27.0948
320280,Itapemirim,ES,-40.8351,-21.0106
330220,Itaperuna,RJ,-41.888,-21.2048
411125,Itaperuçu,PR,-49.3454,-25.2193
260770,Itapetim,PE,-37.1887,-7.3775
291640,Itapetinga,BA,-40.246,-15.2454
352230,Itapetininga,SP,-48.0483,-23.5886
313360,Itapeva,MG,-48.8804,-23.9849
352240,Itapeva,SP,-48.8804,-23.9849
352250,Itapevi,SP,-46.9339,-23.5489
291650,Itapicuru,BA,-38.2184,-11.3094
230640,Itapipoca,CE,-39.5836,-3.4993
352260,Itapira,SP,-46.8217,-22.4361
130200,Itapiranga,AM,-53.7119,-27.172
420840,Itapiranga,SC,-53.7119,-27.172
521100,Itapirapuã,GO,-50.6094,-15.8205
352265,Itapirapuã Paulista,SP,-49.1704,-24.5735
171090,Itapiratins,TO,-48.1072,-8.3798
260775,Itapissuma,PE,-34.8971,-7.768
291660,Itapitanga,BA,-39.5665,-14.4214
230650,Itapiúna,CE,-38.9212,-4.5654
250700,Itaporanga,PB,-38.1506,-7.3041
352280,Itaporanga,SP,-38.1506,-7.3041
280320,Itaporanga d`Ajuda,SE,-38.1506,-7.3041
250710,Itapororoca,PB,-35.2406,-6.8237
500450,Itaporã,MS,-54.7874,-22.0799
171110,Itaporã do Tocantins,TO,-48.6895,-8.5717
420845,Itapoá,SC,-48.618,-26.1162
431057,Itapuca,RS,-52.1727,-28.7801
352300,Itapura,SP,-51.5084,-20.6435
521120,Itapuranga,GO,-49.949,-15.5606
110110,Itapuã do Oeste,RO,-63.191,-9.1896
352290,Itapuí,SP,-48.719,-22.2347
291620,Itapé,BA,-39.425,-14.8976
352310,Itaquaquecetuba,SP,-46.3478,-23.4858
291670,Itaquara,BA,-39.9378,-13.4459
431060,Itaqui,RS,-56.5515,-29.1311
500460,Itaquiraí,MS,-54.1834,-23.4802
260780,Itaquitinga,PE,-35.1024,-7.6643
320290,Itarana,ES,-40.875,-19.8707
291680,Itarantim,BA,-40.0599,-15.6521
352320,Itararé,SP,-49.3354,-24.1147
230655,Itarema,CE,-39.9167,-2.9248
352330,Itariri,SP,-47.1736,-24.2834
521130,Itarumã,GO,-51.3485,-18.7646
431065,Itati,RS,-50.1021,-29.4919
330225,Itatiaia,RJ,-44.5633,-22.4955
313370,Itatiaiuçu,MG,-44.4224,-20.2005
352340,Itatiba,SP,-46.8412,-22.9966
431070,Itatiba do Sul,RS,-52.4538,-27.3846
291685,Itatim,BA,-39.6974,-12.7073
352350,Itatinga,SP,-48.6135,-23.1042
230660,Itatira,CE,-39.6202,-4.5261
250720,Itatuba,PB,-35.6265,-7.3759
160025,Itaubal,AP,-50.6988,0.6014
220510,Itaueira,PI,-43.0253,-7.6014
521140,Itauçu,GO,-49.606,-16.2036
313390,Itaverava,MG,-43.611,-20.6762
352180,Itaí,SP,-49.0936,-23.4173
260750,Itaíba,PE,-37.4212,-8.9467
352215,Itaóca,SP,-48.8405,-24.6409
240490,Itaú,RN,-37.9913,-5.8414
313375,Itaú de Minas,MG,-46.7522,-20.7397
510455,Itaúba,MT,-55.2437,-11.0067
313380,Itaúna,MG,-44.5764,-20.0756
411130,Itaúna do Sul,PR,-52.8854,-22.7302
313400,Itinga,MG,-41.7702,-16.6067
210542,Itinga do Maranhão,MA,-47.5254,-4.4529
510460,Itiquira,MT,-54.1422,-17.2147
352360,Itirapina,SP,-47.8166,-22.2562
352370,Itirapuã,SP,-47.2194,-20.6416
291690,Itiruçu,BA,-40.1506,-13.5344
291700,Itiúba,BA,-39.8533,-10.6917
352380,Itobi,SP,-46.9743,-21.7309
291710,Itororó,BA,-40.0639,-15.1156
352390,Itu,SP,-47.2989,-23.2639
291720,Ituaçu,BA,-41.2982,-13.8155
291730,Ituberá,BA,-39.145,-13.733
313410,Itueta,MG,-41.2263,-19.3962
313420,Ituiutaba,MG,-49.4639,-18.9692
521150,Itumbiara,GO,-49.2169,-18.414
313430,Itumirim,MG,-44.8706,-21.3172
352400,Itupeva,SP,-47.058,-23.1531
150370,Itupiranga,PA,-49.3322,-5.1337
420850,Ituporanga,SC,-49.6015,-27.4096
313440,Iturama,MG,-50.1953,-19.7281
313450,Itutinga,MG,-44.6575,-21.2974
352410,Ituverava,SP,-47.7798,-20.3367
420800,Itá,SC,-52.3378,-27.275
352270,Itápolis,SP,-48.8146,-21.5941
291733,Iuiú,BA,-43.5509,-14.4113
411150,Ivaiporã,PR,-51.6719,-24.2434
411160,Ivatuba,PR,-52.2174,-23.6187
411155,Ivaté,PR,-53.3698,-23.4085
411140,Ivaí,PR,-50.8569,-25.007
500470,Ivinhema,MS,-53.823,-22.3034
521160,Ivolândia,GO,-50.7924,-16.605
431075,Ivorá,RS,-53.5805,-29.5197
431080,Ivoti,RS,-51.1599,-29.5934
420700,Içara,SC,-49.2971,-28.7117
320300,Iúna,ES,-41.536,-20.3427
260790,Jaboatão dos Guararapes,PE,-34.9778,-8.1057
291735,Jaborandi,BA,-44.4693,-13.6204
352420,Jaborandi,SP,-44.4693,-13.6204
420860,Jaborá,SC,-51.7349,-27.1743
411170,Jaboti,PR,-50.0749,-23.7431
431085,Jaboticaba,RS,-53.2762,-27.6347
352430,Jaboticabal,SP,-48.3252,-21.252
313460,Jaboticatubas,MG,-43.7453,-19.5217
291740,Jacaraci,BA,-42.4333,-14.8502
250730,Jacaraú,PB,-35.2862,-6.6174
150375,Jacareacanga,PA,-57.756,-6.2245
411180,Jacarezinho,PR,-49.9739,-23.1591
352440,Jacareí,SP,-45.9658,-23.3053
270340,Jacaré dos Homens,AL,-37.2056,-9.6349
352450,Jaci,SP,-49.5711,-20.8844
510480,Jaciara,MT,-54.9762,-15.952
313470,Jacinto,MG,-40.2939,-16.1439
420870,Jacinto Machado,SC,-49.7603,-28.9993
291750,Jacobina,BA,-40.5215,-11.1815
220515,Jacobina do Piauí,PI,-41.2075,-7.9306
431087,Jacuizinho,RS,-53.0535,-29.0342
150380,Jacundá,PA,-49.1153,-4.4462
352460,Jacupiranga,SP,-48.0061,-24.7038
313490,Jacutinga,MG,-46.6122,-22.2858
431090,Jacutinga,RS,-46.6122,-22.2858
313480,Jacuí,MG,-46.7458,-21.017
270350,Jacuípe,AL,-35.4591,-8.8395
411190,Jaguapitã,PR,-51.5321,-23.1102
291760,Jaguaquara,BA,-39.9693,-13.5295
291770,Jaguarari,BA,-40.1965,-10.2596
313500,Jaguaraçu,MG,-42.7513,-19.6472
230670,Jaguaretama,CE,-38.7633,-5.609
431110,Jaguari,RS,-54.6932,-29.4981
411200,Jaguariaíva,PR,-49.7202,-24.259
230680,Jaguaribara,CE,-38.4679,-5.4545
230690,Jaguaribe,CE,-38.6195,-5.8848
291780,Jaguaripe,BA,-38.8945,-13.1148
352470,Jaguariúna,SP,-46.9851,-22.7037
230700,Jaguaruana,CE,-37.781,-4.8315
420880,Jaguaruna,SC,-49.0289,-28.6237
431100,Jaguarão,RS,-53.376,-32.5669
320305,Jaguaré,ES,-40.0712,-18.9029
220520,Jaicós,PI,-41.1408,-7.3604
352480,Jales,SP,-50.5494,-20.2672
352490,Jambeiro,SP,-45.692,-23.2556
313507,Jampruca,MG,-41.8061,-18.4614
313510,Janaúba,MG,-43.3115,-15.8004
521170,Jandaia,GO,-50.1475,-17.048
411210,Jandaia do Sul,PR,-51.6442,-23.6013
291790,Jandaíra,BA,-37.782,-11.5628
240510,Jandaíra,RN,-37.782,-11.5628
352500,Jandira,SP,-46.9024,-23.5274
240520,Janduís,RN,-37.4069,-6.017
510490,Jangada,MT,-56.4903,-15.237
411220,Janiópolis,PR,-52.7784,-24.1401
313520,Januária,MG,-44.3611,-15.4875
240530,Januário Cicco,RN,-35.6006,-6.1583
